Geographical Name;Latitude;Longitude;Generic Term;Province - Territory
Abee;54.2377778;-113.0277778;Hamlet;Alberta
Acadia Valley;51.1569445;-110.2097222;Hamlet;Alberta
Acme;51.4972222;-113.5086111;Village;Alberta
Acheson;53.5502778;-113.7747222;Locality;Alberta
Aetna;49.1338889;-113.24;Hamlet;Alberta
Airdrie;51.2922222;-114.0141667;City;Alberta
Alberta Beach;53.6780555;-114.3511111;Village;Alberta
Alder Flats;52.9330556;-114.9569444;Hamlet;Alberta
Aldersyde;50.6761111;-113.8788889;Hamlet;Alberta
Alhambra;52.3430556;-114.6725;Hamlet;Alberta
Alix;52.3999999;-113.1797221;Village;Alberta
Alliance;52.4344445;-111.7852778;Village;Alberta
Altario;51.9186111;-110.1622222;Hamlet;Alberta
Amisk;52.5655555;-111.0572222;Village;Alberta
Andrew;53.8783333;-112.3352778;Village;Alberta
Anzac;56.4486111;-111.0352778;Hamlet;Alberta
Ardmore;54.3319444;-110.4827778;Hamlet;Alberta
Ardrossan;53.5522222;-113.1438889;Hamlet;Alberta
Arrowwood;50.7394444;-113.1483332;Village;Alberta
Ashmont;54.1291666;-111.5680556;Hamlet;Alberta
Assumption;58.6994444;-118.6872222;Hamlet;Alberta
Athabasca;54.7166666;-113.2841667;Town;Alberta
Atikameg;55.9169444;-115.6513889;Hamlet;Alberta
Atmore;54.8191667;-112.5497222;Hamlet;Alberta
Banff;51.1777778;-115.5736111;Town;Alberta
Barnwell;49.7605556;-112.2633333;Village;Alberta
Barons;49.9966667;-113.0830556;Village;Alberta
Barrhead;54.1216667;-114.4036111;Town;Alberta
Bashaw;52.5830555;-112.9702778;Town;Alberta
Bassano;50.7875;-112.4683333;Town;Alberta
Bawlf;52.9194444;-112.466111;Village;Alberta
Bay Tree;55.825;-119.9061111;Locality;Alberta
Beaumont;53.3525;-113.4152778;Town;Alberta
Beauvallon;53.6588889;-111.3661111;Hamlet;Alberta
Beaver Crossing;54.3605555;-110.2066667;Hamlet;Alberta
Beaver Lake;54.7602778;-111.9097222;Hamlet;Alberta
Beaverlodge;55.2091667;-119.4288889;Town;Alberta
Beiseker;51.385;-113.536111;Village;Alberta
Bellis;54.1427778;-112.1502778;Hamlet;Alberta
Benalto;52.3077777;-114.2783333;Hamlet;Alberta
Benchlands;51.2841667;-114.8044444;Hamlet;Alberta
Bentley;52.4663889;-114.0511111;Village;Alberta
Berwyn;56.1463889;-117.7363889;Village;Alberta
Bezanson;55.2286111;-118.3608333;Hamlet;Alberta
Big Valley;52.0327778;-112.7519444;Village;Alberta
Bindloss;50.88;-110.2736111;Hamlet;Alberta
Bittern Lake;53.0080556;-113.0566667;Village;Alberta
Black Diamond;50.6880556;-114.2344444;Town;Alberta
Blackfalds;52.3783333;-113.7961111;Town;Alberta
Blackfoot;53.2891667;-110.1733333;Hamlet;Alberta
Blue Ridge;54.125;-115.3777778;Hamlet;Alberta
Bluesky;56.073889;-118.238333;Hamlet;Alberta
Bluffton;52.7494444;-114.2916667;Hamlet;Alberta
Bodo;52.1533333;-110.0791667;Hamlet;Alberta
Bon Accord;53.8369444;-113.4122222;Town;Alberta
Bonnyville;54.2672222;-110.7386111;Town;Alberta
Botha;52.3080555;-112.5238888;Village;Alberta
Bow Island;49.8672222;-111.3788889;Town;Alberta
Bowden;51.9322222;-114.0347222;Town;Alberta
Boyle;54.5897222;-112.8066667;Village;Alberta
Bragg Creek;50.9502778;-114.5697222;Hamlet;Alberta
Brazeau Dam;52.9702778;-115.5830556;Hamlet;Alberta
Breton;53.108611;-114.4724999;Village;Alberta
Brocket;49.5466667;-113.7497222;Hamlet;Alberta
Brooks;50.567222;-111.895;City;Alberta
Brosseau;53.7916666;-111.6869444;Hamlet;Alberta
Brownvale;56.1283334;-117.8925;Hamlet;Alberta
Bruce;53.1738889;-112.0386111;Hamlet;Alberta
Bruderheim;53.7997222;-112.9283333;Town;Alberta
Buck Creek;53.1038889;-114.8955556;Hamlet;Alberta
Buck Lake;52.9516667;-114.7733333;Hamlet;Alberta
Buffalo Head Prairie;58.0508333;-116.3494444;Hamlet;Alberta
Buford;53.2475;-113.9311111;Hamlet;Alberta
Busby;53.9480556;-113.8905556;Hamlet;Alberta
Byemoor;51.9727778;-112.2866667;Hamlet;Alberta
Cadogan;52.3191667;-110.4486111;Hamlet;Alberta
Cadomin;53.0291667;-117.3266667;Hamlet;Alberta
Cadotte Lake;56.4672223;-116.3808333;Hamlet;Alberta
Calahoo;53.7111111;-113.9541667;Hamlet;Alberta
Calais;55.0719444;-117.5388889;Hamlet;Alberta
Calgary;51.0458333;-114.0574999;City;Alberta
Calling Lake;55.2144444;-113.1969444;Hamlet;Alberta
Calmar;53.2577778;-113.8108333;Town;Alberta
Cambria;51.3955555;-112.5927778;Hamlet;Alberta
Camrose;53.0247222;-112.8241667;City;Alberta
Canmore;51.0830555;-115.3683333;Town;Alberta
Canyon Creek;55.3719445;-115.0947222;Hamlet;Alberta
Carbon;51.4858333;-113.1505556;Village;Alberta
Carbondale;53.7463889;-113.5269444;Hamlet;Alberta
Carcajou;57.767056;-117.04;Hamlet;Alberta
Cardiff;53.7727778;-113.6;Hamlet;Alberta
Cardston;49.2;-113.3038889;Town;Alberta
Carmangay;50.1294444;-113.1113888;Village;Alberta
Caroline;52.0913888;-114.7427778;Village;Alberta
Carseland;50.8513889;-113.4677778;Hamlet;Alberta
Carstairs;51.5655555;-114.0994444;Town;Alberta
Carvel;53.5308333;-114.21;Hamlet;Alberta
Caslan;54.6311111;-112.5116667;Hamlet;Alberta
Castor;52.2191667;-111.9036111;Town;Alberta
Cereal;51.4183333;-110.8002778;Village;Alberta
Cessford;51.0063889;-111.5566667;Hamlet;Alberta
Champion;50.2397222;-113.1480556;Village;Alberta
Chauvin;52.6936111;-110.1411111;Village;Alberta
Cherhill;53.8191667;-114.6772222;Hamlet;Alberta
Cherry Grove;54.3561111;-110.0752778;Hamlet;Alberta
Cherry Point;56.1877778;-119.9541667;Locality;Alberta
Chestermere;51.0333333;-113.8166667;Town;Alberta
Chinook;51.4494445;-110.9252778;Hamlet;Alberta
Chipman;53.6983333;-112.6377778;Village;Alberta
Chisholm;54.9094445;-114.1688889;Hamlet;Alberta
Clandonald;53.571861;-110.713917;Hamlet;Alberta
Claresholm;50.0197222;-113.5827778;Town;Alberta
Cline River;52.1886111;-116.4788889;Settlement;Alberta
Clive;52.4752777;-113.4483332;Village;Alberta
Clyde;54.15;-113.65;Village;Alberta
Coaldale;49.7277777;-112.6186111;Town;Alberta
Coalhurst;49.7486111;-112.9294444;Town;Alberta
Cochrane;51.2066667;-114.4669444;Town;Alberta
Cold Lake;54.45;-110.1666667;City;Alberta
Colinton;54.6205556;-113.2527778;Hamlet;Alberta
College Heights;52.4891667;-113.7333333;Hamlet;Alberta
Compeer;51.8594444;-110.0130556;Hamlet;Alberta
Condor;52.3263889;-114.5552778;Hamlet;Alberta
Conklin;55.6311111;-111.0788889;Hamlet;Alberta
Consort;52.0077778;-110.7741667;Village;Alberta
Cooking Lake;53.4113889;-113.1216667;Hamlet;Alberta
Coronation;52.0947223;-111.4477778;Town;Alberta
Coutts;49.0027778;-111.9588889;Village;Alberta
Cowley;49.571111;-114.0749999;Village;Alberta
Craigmyle;51.6697222;-112.2430556;Hamlet;Alberta
Cremona;51.5455555;-114.4924999;Village;Alberta
Crooked Creek;55.1708334;-117.8897222;Hamlet;Alberta
Crossfield;51.4305556;-114.0308333;Town;Alberta
Crowsnest Pass;49.5888889;-114.5083333;Town;Alberta
Cynthia;53.2827778;-115.4227778;Hamlet;Alberta
Czar;52.4547222;-110.8283333;Village;Alberta
Darwell;53.6705556;-114.5922222;Hamlet;Alberta
Daysland;52.8641666;-112.255;Town;Alberta
De Winton;50.8230555;-114.0186111;Hamlet;Alberta
DeBolt;55.2216667;-118.0202778;Hamlet;Alberta
Delburne;52.1980555;-113.2347222;Village;Alberta
Delia;51.6305556;-112.3738889;Village;Alberta
Demmitt;55.4555555;-119.8966667;Locality;Alberta
Derwent;53.65;-110.966667;Hamlet;Alberta
Devon;53.3622223;-113.7225;Town;Alberta
Dewberry;53.5880555;-110.525;Village;Alberta
Diamond City;49.7955556;-112.8388889;Hamlet;Alberta
Dickson;52.0566667;-114.3080556;Hamlet;Alberta
Didsbury;51.6594444;-114.1375;Town;Alberta
Dixonville;56.5372222;-117.6708333;Hamlet;Alberta
Donalda;52.5836111;-112.5741667;Village;Alberta
Donnelly;55.7288889;-117.1047221;Village;Alberta
Drayton Valley;53.2241667;-114.9808333;Town;Alberta
Drumheller;51.4644444;-112.7188889;Town;Alberta
Duchess;50.731111;-111.9063888;Village;Alberta
Dunmore;49.9702778;-110.5841667;Hamlet;Alberta
Duvernay;53.7861111;-111.6925;Hamlet;Alberta
Eagle Hill;51.8269444;-114.38;Hamlet;Alberta
East Coulee;51.333333;-112.48333;Hamlet;Alberta
Eckville;52.36;-114.3669444;Town;Alberta
Edberg;52.7847222;-112.7891667;Village;Alberta
Edgerton;52.7586111;-110.4580556;Village;Alberta
Edmonton;53.5344445;-113.4902778;City;Alberta
Edson;53.5836111;-116.4327778;Town;Alberta
Egremont;54.0383333;-113.1261111;Hamlet;Alberta
Elk Point;53.9011111;-110.9005556;Town;Alberta
Elkwater;49.6608333;-110.2816667;Hamlet;Alberta
Elnora;51.9905556;-113.2008333;Village;Alberta
Empress;50.9555556;-110.0058333;Village;Alberta
Enchant;50.17;-112.4225;Hamlet;Alberta
Endiang;51.9538889;-112.1583333;Hamlet;Alberta
Enilda;55.4169445;-116.3113889;Hamlet;Alberta
Entrance;53.3736111;-117.69;Hamlet;Alberta
Entwistle;53.5944445;-114.9958333;Village;Alberta
Erskine;52.3211111;-112.8797222;Hamlet;Alberta
Etzikom;49.4769444;-111.1072222;Hamlet;Alberta
Exshaw;51.0616667;-115.1627778;Hamlet;Alberta
Fabyan;52.8819444;-110.9936111;Hamlet;Alberta
Fairview;56.0672222;-118.3841667;Town;Alberta
Falher;55.7372222;-117.2013889;Town;Alberta
Fallis;53.5852778;-114.6408333;Hamlet;Alberta
Falun;52.9583333;-113.8425;Hamlet;Alberta
Faust;55.3158333;-115.6275;Hamlet;Alberta
Fawcett;54.5405556;-114.0947222;Hamlet;Alberta
Ferintosh;52.7658333;-112.9716667;Village;Alberta
Fifth Meridian;58.6508333;-114.0038889;Hamlet;Alberta
Fitzgerald;59.8616666;-111.6055556;Hamlet;Alberta
Flatbush;54.6891667;-114.1563889;Hamlet;Alberta
Fleet;52.1533333;-111.73;Hamlet;Alberta
Foremost;49.4763889;-111.4469444;Village;Alberta
Forestburg;52.5838889;-112.0644444;Village;Alberta
Fort Chipewyan;58.7144444;-111.1583333;Hamlet;Alberta
Fort Kent;54.3108333;-110.6044444;Hamlet;Alberta
Fort MacKay;57.1811111;-111.5997222;Hamlet;Alberta
Fort Macleod;49.7230555;-113.4041667;Town;Alberta
Fort McMurray;56.726472;-111.380361;Locality;Alberta
Fort Saskatchewan;53.7111111;-113.2177778;City;Alberta
Fort Vermilion;58.39;-116.0166667;Hamlet;Alberta
Fox Creek;54.3941666;-116.8066667;Town;Alberta
Fox Lake;58.4677778;-114.5375;Hamlet;Alberta
Gadsby;52.2925;-112.3466667;Village;Alberta
Gainford;53.5869444;-114.7880556;Hamlet;Alberta
Galahad;52.514167;-111.930555;Village;Alberta
Gibbons;53.8297222;-113.3283333;Town;Alberta
Gift Lake;55.8825;-115.8125;Hamlet;Alberta
Girouxville;55.7536111;-117.3388889;Village;Alberta
Glendon;54.2525;-111.1602778;Village;Alberta
Glenevis;53.7897222;-114.5169444;Hamlet;Alberta
Glenwood;49.3644445;-113.5113889;Village;Alberta
Grande Cache;53.8880556;-119.1186111;Town;Alberta
Grande Prairie;55.1708334;-118.7961111;City;Alberta
Granum;49.8711111;-113.5083333;Town;Alberta
Grassland;54.82;-112.6872222;Hamlet;Alberta
Green Court;54.0077777;-115.2386111;Hamlet;Alberta
Grimshaw;56.1886112;-117.6058333;Town;Alberta
Grouard;55.5202778;-116.1611111;Hamlet;Alberta
Grouard Mission;55.5441667;-116.1536111;Hamlet;Alberta
Gunn;53.7269444;-114.3436111;Hamlet;Alberta
Guy;55.5488889;-117.12;Hamlet;Alberta
Gwynne;52.9866666;-113.1988889;Hamlet;Alberta
Habay;58.8080556;-118.7166667;Hamlet;Alberta
Hairy Hill;53.7633334;-111.9786111;Locality;Alberta
Halkirk;52.2825;-112.1536111;Village;Alberta
Hanna;51.6458334;-111.9252778;Town;Alberta
Hardieville;49.7402778;-112.8280556;Hamlet;Alberta
Hardisty;52.675;-111.3044444;Town;Alberta
Hartleyville;49.3644445;-113.6094444;Hamlet;Alberta
Harvie Heights;51.1252778;-115.385;Hamlet;Alberta
Hay Camp;59.525;-111.4658333;Hamlet;Alberta
Hay Lakes;53.1966666;-113.0572221;Village;Alberta
Hays;50.0980555;-111.7936111;Hamlet;Alberta
Hayter;52.3563889;-110.1077778;Hamlet;Alberta
Hazell;49.63;-114.6644444;Hamlet;Alberta
Heinsburg;53.7675;-110.5216667;Hamlet;Alberta
Heisler;52.6686111;-112.2227778;Village;Alberta
High Level;58.5180555;-117.1288889;Town;Alberta
High Prairie;55.4322223;-116.4944444;Town;Alberta
High River;50.5797223;-113.8741667;Town;Alberta
Highway;53.8894445;-115.4797222;Hamlet;Alberta
Hilda;50.4797222;-110.0327778;Hamlet;Alberta
Hill Spring;49.2930555;-113.6222222;Village;Alberta
Hilliard;53.64;-112.4819444;Hamlet;Alberta
Hines Creek;56.2463889;-118.605;Village;Alberta
Hinton;53.4111111;-117.5627778;Town;Alberta
Hoadley;52.8469444;-114.3725;Hamlet;Alberta
Hobbema;52.8308333;-113.4572222;Hamlet;Alberta
Holden;53.2333333;-112.2338889;Village;Alberta
Hornbeck;53.5491667;-116.6916667;Hamlet;Alberta
Hughenden;52.5105556;-110.9672222;Village;Alberta
Hussar;51.0413889;-112.6816667;Village;Alberta
Huxley;51.9225;-113.2316667;Hamlet;Alberta
Hythe;55.3272222;-119.5538889;Village;Alberta
Imperial Mills;54.9988889;-111.7338889;Hamlet;Alberta
Indian Cabins;59.8675;-117.0347222;Hamlet;Alberta
Indus;50.9158333;-113.78;Hamlet;Alberta
Innisfail;52.028139;-113.950639;Town;Alberta
Innisfree;53.3825;-111.5308333;Village;Alberta
Irma;52.9119444;-111.2283333;Village;Alberta
Iron Springs;49.93;-112.6875;Hamlet;Alberta
Irricana;51.3236111;-113.6080556;Town;Alberta
Islay;53.3938889;-110.5388889;Hamlet;Alberta
Jarvie;54.4547222;-113.9869444;Hamlet;Alberta
Jasper;52.8777778;-118.0830556;Hamlet;Alberta
Jean Cote;55.8980556;-117.3105556;Hamlet;Alberta
Josephburg;53.7133333;-113.07;Hamlet;Alberta
Joussard;55.3977777;-115.9522222;Hamlet;Alberta
Kananaskis;51.0761111;-115.1294444;Hamlet;Alberta
Kathleen;55.6213889;-116.8361111;Hamlet;Alberta
Kavanagh;53.1822222;-113.5169444;Hamlet;Alberta
Keg River;57.7881758;-117.8584033;Hamlet;Alberta
Kikino;54.4441667;-112.0938889;Hamlet;Alberta
Killam;52.7897223;-111.8552778;Town;Alberta
Kingman;53.2133333;-112.7494444;Hamlet;Alberta
Kinsella;53.0002778;-111.5238889;Hamlet;Alberta
Kinuso;55.331944;-115.435278;Village;Alberta
Kitscoty;53.3419444;-110.3333333;Village;Alberta
La Corey;54.4433334;-110.7594444;Locality;Alberta
La Crete;58.1863889;-116.4102778;Hamlet;Alberta
La Glace;55.4027778;-119.1541667;Hamlet;Alberta
Lac des Arcs;51.0516667;-115.1563889;Hamlet;Alberta
Lac La Biche;54.7702778;-111.9791667;Town;Alberta
Lac La Biche Mission;54.8236111;-112.0922222;Hamlet;Alberta
Lacombe;52.464444;-113.734167;City;Alberta
Lake Louise;51.4252778;-116.1805556;Hamlet;Alberta
Lamont;53.7591666;-112.7844444;Town;Alberta
Lamoureux;53.7152778;-113.2244444;Hamlet;Alberta
Langdon;50.9688889;-113.6775;Hamlet;Alberta
Lavoy;53.4566667;-111.8652778;Village;Alberta
Leavitt;49.1666667;-113.45;Hamlet;Alberta
Leduc;53.2666666;-113.5458333;City;Alberta
Leedale;52.5819444;-114.4697222;Hamlet;Alberta
Legal;53.9495;-113.595111;Town;Alberta
Leslieville;52.3833333;-114.6047222;Hamlet;Alberta
Lethbridge;49.6936111;-112.8419444;City;Alberta
Lindbergh;53.8875;-110.6727778;Hamlet;Alberta
Linden;51.5905556;-113.4883333;Village;Alberta
Little Buffalo;56.4375;-116.1075;Hamlet;Alberta
Little Smoky;54.7388889;-117.1797222;Hamlet;Alberta
Lloydminster;53.2838889;-110;City;Alberta
Lodgepole;53.1005556;-115.3136111;Hamlet;Alberta
Lomond;50.3494445;-112.6405556;Village;Alberta
Longview;50.5308333;-114.2308333;Village;Alberta
Loon Lake;56.5388889;-115.3938889;Hamlet;Alberta
Lougheed;52.7444444;-111.5427778;Village;Alberta
Lousana;52.1127778;-113.19;Hamlet;Alberta
Lundbreck;49.5855555;-114.1619444;Hamlet;Alberta
Magnolia Bridge;53.5916667;-114.8575;Hamlet;Alberta
Magrath;49.4077778;-112.8666667;Town;Alberta
Mallaig;54.2102778;-111.3608333;Hamlet;Alberta
Manning;56.9222222;-117.6283333;Town;Alberta
Mannville;53.3402778;-111.1777778;Village;Alberta
Manola;54.0980555;-114.2327778;Hamlet;Alberta
Manyberries;49.4005555;-110.6947222;Hamlet;Alberta
Mariana Lake;55.9536111;-112.0166667;Locality;Alberta
Marie-Reine;56.0763889;-117.2894444;Hamlet;Alberta
Markerville;52.1236111;-114.1705556;Hamlet;Alberta
Marlboro;53.5555555;-116.7961111;Hamlet;Alberta
Marwayne;53.5175;-110.33;Village;Alberta
Mayerthorpe;53.9547222;-115.1380556;Town;Alberta
McLaughlin;52.9897222;-110.165;Hamlet;Alberta
McLennan;55.7086111;-116.9072222;Town;Alberta
Meander River;59.033333;-117.7;Hamlet;Alberta
Medicine Hat;50.0408334;-110.6766667;City;Alberta
Meeting Creek;52.6819445;-112.7316667;Hamlet;Alberta
Metiskow;52.4086111;-110.6333333;Hamlet;Alberta
Michichi;51.5852778;-112.5336111;Hamlet;Alberta
Milk River;49.15;-112.0866667;Town;Alberta
Millet;53.0961111;-113.4727778;Town;Alberta
Milo;50.57;-112.8819444;Village;Alberta
Minburn;53.3155556;-111.3641667;Village;Alberta
Monarch;49.8044444;-113.1077778;Hamlet;Alberta
Monitor;51.9783333;-110.5694444;Hamlet;Alberta
Morecambe;53.6644444;-111.47;Hamlet;Alberta
Morinville;53.8027778;-113.6438889;Town;Alberta
Morningside;52.5777778;-113.6338889;Hamlet;Alberta
Morrin;51.6602778;-112.7672222;Village;Alberta
Mossleigh;50.7202778;-113.3244444;Hamlet;Alberta
Mountain View;49.1344444;-113.5963889;Hamlet;Alberta
Mulhurst;53.0544444;-113.9955556;Hamlet;Alberta
Mundare;53.5938889;-112.3416667;Town;Alberta
Munson;51.5633333;-112.7383333;Village;Alberta
Myrnam;53.6616667;-111.2302778;Village;Alberta
Nacmine;51.466667;-112.78333;Hamlet;Alberta
Nampa;56.0372222;-117.1330556;Village;Alberta
Nanton;50.35;-113.7666667;Town;Alberta
Neerlandia;54.3191667;-114.3772222;Hamlet;Alberta
New Brigden;51.7005555;-110.49;Hamlet;Alberta
New Dayton;49.4255556;-112.3813889;Hamlet;Alberta
New Norway;52.868889;-112.951111;Hamlet;Alberta
New Sarepta;53.274167;-113.145556;Hamlet;Alberta
Newbrook;54.3297222;-112.9519444;Hamlet;Alberta
Nisku;53.3433333;-113.5413889;Hamlet;Alberta
Niton;53.6577778;-115.7594444;Hamlet;Alberta
Niton Junction;53.6219444;-115.7697222;Hamlet;Alberta
Nobleford;49.8813889;-113.0558333;Village;Alberta
Noral;54.6530555;-112.3602778;Hamlet;Alberta
Nordegg;52.4705556;-116.0752778;Hamlet;Alberta
North Cooking Lake;53.4613889;-112.9391667;Hamlet;Alberta
North Star;56.8563889;-117.6152778;Hamlet;Alberta
Notikewin;56.9747222;-117.625;Hamlet;Alberta
Ohaton;52.9694444;-112.6561111;Hamlet;Alberta
Okotoks;50.7261111;-113.9775;Town;Alberta
Olds;51.7919444;-114.1075;Town;Alberta
Onoway;53.7025;-114.1919444;Village;Alberta
Oyen;51.3527778;-110.4833333;Town;Alberta
Paddle Prairie;57.9511111;-117.4722222;Hamlet;Alberta
Paradise Valley;53.0327778;-110.2958333;Village;Alberta
Parkland;50.2561111;-113.6586111;Hamlet;Alberta
Patricia;50.6994444;-111.6769444;Hamlet;Alberta
Peace River;56.2358334;-117.2986111;Town;Alberta
Peerless Lake;56.6708334;-114.5752778;Hamlet;Alberta
Peers;53.6658333;-115.9925;Hamlet;Alberta
Penhold;52.1369444;-113.8730556;Town;Alberta
Philomena;55.1755556;-111.6158333;Hamlet;Alberta
Pibroch;54.2544444;-113.875;Hamlet;Alberta
Pickardville;54.05;-113.8833333;Hamlet;Alberta
Picture Butte;49.8769444;-112.7797222;Town;Alberta
Pincher;49.533333;-113.93333;Hamlet;Alberta
Pincher Creek;49.4852778;-113.9475;Town;Alberta
Pipestone;53.0536111;-113.7947222;Hamlet;Alberta
Ponoka;52.675;-113.58;Town;Alberta
Provost;52.3533333;-110.2647222;Town;Alberta
Queenstown;50.6394444;-112.9394444;Hamlet;Alberta
Radway;54.06;-112.945;Locality;Alberta
Rainbow Lake;58.5044444;-119.4002778;Town;Alberta
Ralston;50.2458333;-111.1686111;Hamlet;Alberta
Ranfurly;53.4072223;-111.6797222;Hamlet;Alberta
Raymond;49.465;-112.6611111;Town;Alberta
Red Deer;52.2686111;-113.8102778;City;Alberta
Red Earth Creek;56.5405555;-115.2852778;Hamlet;Alberta
Red Willow;52.45;-112.5666667;Hamlet;Alberta
Redcliff;50.0775;-110.7855556;Town;Alberta
Redwater;53.9508334;-113.1075;Town;Alberta
Reno;55.9927778;-116.9936111;Hamlet;Alberta
Ribstone;52.7069444;-110.2644444;Hamlet;Alberta
Rich Valley;53.8483333;-114.35;Hamlet;Alberta
Rimbey;52.6391667;-114.2366667;Town;Alberta
Riverview;53.8619444;-110.6419444;Hamlet;Alberta
Riviere Qui Barre;53.7747222;-113.8433333;Hamlet;Alberta
Robb;53.2333333;-116.9786111;Hamlet;Alberta
Rochester;54.3725;-113.4605556;Hamlet;Alberta
Rochfort Bridge;53.9136111;-115.0363889;Hamlet;Alberta
Rocky Mountain House;52.3747222;-114.9219444;Town;Alberta
Rocky Rapids;53.2797222;-114.9516667;Hamlet;Alberta
Rockyford;51.2341667;-113.1425;Village;Alberta
Rolling Hills;50.2255556;-111.7744444;Hamlet;Alberta
Rolly View;53.2527778;-113.3169444;Hamlet;Alberta
Rosalind;52.7897223;-112.4438889;Village;Alberta
Rosebud;51.2997222;-112.9511111;Hamlet;Alberta
Rosedale;51.416667;-112.63333;Hamlet;Alberta
Rosemary;50.7575;-112.0897222;Village;Alberta
Round Hill;53.1652778;-112.6308333;Hamlet;Alberta
Rowley;51.7622222;-112.7883333;Hamlet;Alberta
Royalties;50.55;-114.2333333;Hamlet;Alberta
Rycroft;55.7558333;-118.7086111;Village;Alberta
Ryley;53.2908333;-112.4297222;Village;Alberta
Saddle Lake;53.9683333;-111.6919444;Hamlet;Alberta
Sandy Lake;55.8144444;-113.4161111;Hamlet;Alberta
Sangudo;53.8891667;-114.9041667;Village;Alberta
Saskatchewan River Crossing;51.9744445;-116.7455556;Locality;Alberta
Scandia;50.2780556;-112.0466667;Hamlet;Alberta
Schuler;50.3313889;-110.1075;Hamlet;Alberta
Sedgewick;52.7747223;-111.6927778;Town;Alberta
Seebe;51.0963889;-115.0569444;Hamlet;Alberta
Seven Persons;49.8741667;-110.9058333;Hamlet;Alberta
Sexsmith;55.3502778;-118.7816667;Town;Alberta
Sheerness;51.4891666;-111.6788889;Hamlet;Alberta
Shepard;50.9519445;-113.9097222;Hamlet;Alberta
Sherwood Park;53.5338889;-113.2902778;Urban Community;Alberta
Sibbald;51.3883333;-110.1502778;Hamlet;Alberta
Slave Lake;55.2822222;-114.7702778;Town;Alberta
Smith;55.1627778;-114.0369444;Hamlet;Alberta
Smoky Lake;54.1166666;-112.4666667;Town;Alberta
Spedden;54.1386111;-111.7255556;Hamlet;Alberta
Spirit River;55.7786111;-118.8366667;Town;Alberta
Spring Coulee;49.3344444;-113.0516667;Hamlet;Alberta
Spring Lake;53.5186111;-114.1330556;Village;Alberta
Spruce Grove;53.5538889;-113.9022222;City;Alberta
Spurfield;55.2263889;-114.2616667;Hamlet;Alberta
Sputinow;53.916667;-110.25;Hamlet;Alberta
St. Albert;53.6369444;-113.6202778;City;Alberta
St. Lina;54.2961111;-111.4536111;Hamlet;Alberta
St. Michael;53.8302778;-112.6358333;Hamlet;Alberta
St. Paul;53.9927777;-111.2961111;Town;Alberta
Stand Off;49.4613889;-113.3083333;Hamlet;Alberta
Standard;51.1097222;-112.9836111;Village;Alberta
Stavely;50.1611111;-113.6416667;Town;Alberta
Steen River;59.6275;-117.1672222;Hamlet;Alberta
Stettler;52.3238889;-112.7044444;Town;Alberta
Stirling;49.4969444;-112.5130556;Village;Alberta
Stony Plain;53.5263889;-114.0069444;Town;Alberta
Strathmore;51.0455556;-113.3930556;Town;Alberta
Strome;52.8108333;-112.0672222;Village;Alberta
Sturgeon Heights;55.0886111;-117.6741667;Hamlet;Alberta
Suffield;50.2183333;-111.1611111;Hamlet;Alberta
Sundre;51.7955555;-114.6377778;Town;Alberta
Sunnybrook;53.1938889;-114.2313889;Hamlet;Alberta
Sunnyslope;51.6480556;-113.5566667;Hamlet;Alberta
Swalwell;51.5572222;-113.3183333;Hamlet;Alberta
Swan Hills;54.7166666;-115.4016667;Town;Alberta
Sweetgrass Landing;58.9272222;-111.9163889;Hamlet;Alberta
Sylvan Lake;52.3088888;-114.0977778;Town;Alberta
Taber;49.78475;-112.150972;Town;Alberta
Tangent;55.7986111;-117.6788889;Hamlet;Alberta
Tar Island;57.0191666;-111.4677778;Hamlet;Alberta
Tawatinaw;54.2980555;-113.4833333;Hamlet;Alberta
Tees;52.4675;-113.3208333;Hamlet;Alberta
Telfordville;53.2733333;-114.1705556;Hamlet;Alberta
Therien;54.233333;-111.26667;Hamlet;Alberta
Thorhild;54.158889;-113.125278;Hamlet;Alberta
Thorsby;53.2269445;-114.0480556;Village;Alberta
Three Hills;51.7030555;-113.2686111;Town;Alberta
Tilley;50.4522221;-111.6533331;Hamlet;Alberta
Tofield;53.3708333;-112.6658333;Town;Alberta
Tomahawk;53.3961111;-114.7633333;Hamlet;Alberta
Trochu;51.8286111;-113.2280556;Town;Alberta
Trout Lake;56.5;-114.5333333;Hamlet;Alberta
Tulliby Lake;53.7163889;-110.1852778;Hamlet;Alberta
Turin;49.9652778;-112.5263889;Hamlet;Alberta
Turner Valley;50.6752778;-114.2802778;Town;Alberta
Two Hills;53.7111111;-111.7447222;Town;Alberta
Valhalla Centre;55.4036111;-119.3819444;Hamlet;Alberta
Valleyview;55.065944;-117.281861;Town;Alberta
Vauxhall;50.0683333;-112.1066667;Town;Alberta
Vegreville;53.4955555;-112.0516667;Town;Alberta
Vermilion;53.3547222;-110.8527778;Town;Alberta
Veteran;52.0027778;-111.1208333;Village;Alberta
Viking;53.0947222;-111.7755556;Town;Alberta
Villeneuve;53.6563889;-113.8116667;Hamlet;Alberta
Vilna;54.1166666;-111.9208333;Village;Alberta
Vimy;54.0666666;-113.65;Hamlet;Alberta
Vulcan;50.4041666;-113.2605556;Town;Alberta
Wabamun;53.5583333;-114.4730556;Village;Alberta
Wabasca-Desmarais;55.9666667;-113.85;Hamlet;Alberta
Wagner;55.3541667;-114.9855556;Hamlet;Alberta
Wainwright;52.8341666;-110.8580556;Town;Alberta
Walsh;49.9472223;-110.0425;Hamlet;Alberta
Wandering River;55.1955555;-112.4752778;Locality;Alberta
Warburg;53.1783334;-114.3208333;Village;Alberta
Warner;49.2827778;-112.2077778;Village;Alberta
Waskatenau;54.0938889;-112.7841667;Village;Alberta
Waterton Park;49.0516667;-113.9141667;Hamlet;Alberta
Watino;55.7191667;-117.6172222;Hamlet;Alberta
Wayne;51.383333;-112.65;Hamlet;Alberta
Wembley;55.1555556;-119.1458333;Town;Alberta
Western Monarch;51.3286111;-112.4797222;Hamlet;Alberta
Westlock;54.1552778;-113.8569444;Town;Alberta
Wetaskiwin;52.9691667;-113.3769444;City;Alberta
Whitecourt;54.1411111;-115.6841667;Town;Alberta
Whitecroft;53.5016667;-113.2930556;Hamlet;Alberta
Whitelaw;56.1083333;-118.0780556;Hamlet;Alberta
Widewater;55.3666666;-115.0333333;Hamlet;Alberta
Willingdon;53.8286111;-112.1180556;Village;Alberta
Wimborne;51.8661111;-113.595;Hamlet;Alberta
Windfall;54.1833334;-116.2108333;Hamlet;Alberta
Winfield;52.9652778;-114.4230556;Hamlet;Alberta
Woking;55.5925;-118.7719444;Hamlet;Alberta
Wrentham;49.5144445;-112.1727778;Hamlet;Alberta
Wyeclif;53.5130555;-113.24;Hamlet;Alberta
Youngstown;51.5288889;-111.2102778;Village;Alberta
100 Mile House;51.642778;-121.295556;District Municipality;British Columbia
Abbotsford;49.052222;-122.329167;City;British Columbia
Alert Bay;50.583889;-126.927778;Village;British Columbia
Anmore;49.314444;-122.856389;Village;British Columbia
Armstrong;50.448333;-119.196667;City;British Columbia
Ashcroft;50.721389;-121.283611;Village;British Columbia
Barriere;51.179722;-120.123611;District Municipality;British Columbia
Belcarra;49.313611;-122.915;Village;British Columbia
Blue River;52.1;-119.3;Community;British Columbia
Bowen Island;49.379722;-123.344167;District Municipality;British Columbia
Burnaby;49.242778;-122.972778;City;British Columbia
Burns Lake;54.230278;-125.764444;Village;British Columbia
Cache Creek;50.811944;-121.323334;Village;British Columbia
Campbell River;50.023056;-125.243611;City;British Columbia
Canal Flats;50.160278;-115.808889;Village;British Columbia
Castlegar;49.324444;-117.666944;City;British Columbia
Central Saanich;48.594444;-123.420833;District Municipality;British Columbia
Chase;50.819167;-119.686111;Village;British Columbia
Chetwynd;55.695833;-121.638333;District Municipality;British Columbia
Chilliwack;49.157778;-121.950833;City;British Columbia
Clearwater;51.645556;-120.0325;District Municipality;British Columbia
Clinton;51.091667;-121.586667;Village;British Columbia
Coldstream;50.223889;-119.23;District Municipality;British Columbia
Colwood;48.423611;-123.493333;City;British Columbia
Comox;49.672778;-124.927778;Town;British Columbia
Coquitlam;49.284167;-122.793611;City;British Columbia
Courtenay;49.689444;-124.995833;City;British Columbia
Cranbrook;49.508056;-115.746944;City;British Columbia
Creston;49.0975;-116.513056;Town;British Columbia
Cumberland;49.618611;-125.0325;Village;British Columbia
Dawson Creek;55.760556;-120.235556;City;British Columbia
Dease Lake;58.433333;-130.024167;Community;British Columbia
Delta;49.084722;-123.058611;District Municipality;British Columbia
District of West Kelowna;49.83;-119.628611;District Municipality;British Columbia
Duncan;48.778611;-123.708056;City;British Columbia
Elkford;50.024444;-114.921667;District Municipality;British Columbia
Enderby;50.550556;-119.139444;City;British Columbia
Esquimalt;48.429722;-123.414444;District Municipality;British Columbia
Fernie;49.504167;-115.062778;City;British Columbia
Fort St. James;54.444444;-124.259167;District Municipality;British Columbia
Fort St. John;56.2525;-120.846667;City;British Columbia
Fraser Lake;54.060278;-124.843889;Village;British Columbia
Fruitvale;49.115;-117.542778;Village;British Columbia
Gibsons;49.400278;-123.508889;Town;British Columbia
Gold River;49.781389;-126.046944;Village;British Columbia
Golden;51.297778;-116.964722;Town;British Columbia
Grand Forks;49.031111;-118.439167;City;British Columbia
Granisle;54.884722;-126.206667;Village;British Columbia
Greenwood;49.088333;-118.676389;City;British Columbia
Harrison Hot Springs;49.298889;-121.784444;Village;British Columbia
Hazelton;55.255833;-127.675556;Village;British Columbia
Highlands;48.480556;-123.511944;District Municipality;British Columbia
Hope;49.38;-121.441389;District Municipality;British Columbia
Horseshoe Bay;49.366667;-123.26667;Community;British Columbia
Houston;54.398333;-126.648333;District Municipality;British Columbia
Hudson's Hope;56.025833;-121.913611;District Municipality;British Columbia
Invermere;50.505833;-116.030556;District Municipality;British Columbia
Jumbo Glacier;50.408333;-116.566667;Mountain Resort Municipality;British Columbia
Kamloops;50.675833;-120.339444;City;British Columbia
Kaslo;49.910556;-116.905;Village;British Columbia
Kelowna;49.888056;-119.495556;City;British Columbia
Kent;49.238056;-121.7625;District Municipality;British Columbia
Keremeos;49.204722;-119.829722;Village;British Columbia
Kimberley;49.685;-115.981667;City;British Columbia
Kitimat;54.053333;-128.652222;District Municipality;British Columbia
Ladysmith;48.993333;-123.815556;Town;British Columbia
Lake Country;50.030278;-119.4025;District Municipality;British Columbia
Lake Cowichan;48.825833;-124.056389;Town;British Columbia
Langford;48.449722;-123.504444;City;British Columbia
Langley;49.1025;-122.658056;City;British Columbia
Langley;49.120278;-122.659722;District Municipality;British Columbia
Lantzville;49.250556;-124.074444;District Municipality;British Columbia
Lillooet;50.693889;-121.933611;District Municipality;British Columbia
Lions Bay;49.458611;-123.235278;Village;British Columbia
Logan Lake;50.494444;-120.813333;District Municipality;British Columbia
Lumby;50.250833;-118.961944;Village;British Columbia
Lytton;50.231111;-121.581389;Village;British Columbia
Mackenzie;55.324444;-123.092778;District Municipality;British Columbia
Maple Ridge;49.22;-122.598889;City;British Columbia
Masset;54.011111;-132.146667;Village;British Columbia
McBride;53.304167;-120.163889;Village;British Columbia
Merritt;50.1125;-120.788333;City;British Columbia
Metchosin;48.379167;-123.535833;District Municipality;British Columbia
Midway;49.008333;-118.778333;Village;British Columbia
Mission;49.159167;-122.283889;District Municipality;British Columbia
Montrose;49.078889;-117.594167;Village;British Columbia
Nakusp;50.239167;-117.7975;Village;British Columbia
Nanaimo;49.163889;-123.938056;City;British Columbia
Nelson;49.493333;-117.295833;City;British Columbia
New Denver;49.991389;-117.377222;Village;British Columbia
New Hazelton;55.243333;-127.586944;District Municipality;British Columbia
New Westminster;49.206667;-122.910556;City;British Columbia
North Cowichan;48.824722;-123.719722;District Municipality;British Columbia
North Saanich;48.656389;-123.432222;District Municipality;British Columbia
North Vancouver;49.320556;-123.073889;City;British Columbia
North Vancouver;49.336111;-123.078056;District Municipality;British Columbia
Northern Rockies Regional Municipality;58.803889;-122.706667;District Municipality;British Columbia
Oak Bay;48.425833;-123.318056;District Municipality;British Columbia
Oliver;49.1825;-119.550833;Town;British Columbia
Osoyoos;49.0325;-119.468333;Town;British Columbia
Parksville;49.318056;-124.311389;City;British Columbia
Peachland;49.773889;-119.736389;District Municipality;British Columbia
Pemberton;50.320556;-122.807778;Village;British Columbia
Penticton;49.500833;-119.593889;City;British Columbia
Pitt Meadows;49.220556;-122.690278;City;British Columbia
Port Alberni;49.234444;-124.805833;City;British Columbia
Port Alice;50.426667;-127.488056;Village;British Columbia
Port Clements;53.685556;-132.183611;Village;British Columbia
Port Coquitlam;49.261944;-122.780278;City;British Columbia
Port Edward;54.220556;-130.289444;District Municipality;British Columbia
Port Hardy;50.724444;-127.498056;District Municipality;British Columbia
Port McNeill;50.589444;-127.083611;Town;British Columbia
Port Moody;49.282222;-122.829444;City;British Columbia
Pouce Coupe;55.714722;-120.133611;Village;British Columbia
Powell River;49.835556;-124.524444;City;British Columbia
Prince George;53.913056;-122.745278;City;British Columbia
Prince Rupert;54.312778;-130.325278;City;British Columbia
Princeton;49.460278;-120.507778;Town;British Columbia
Qualicum Beach;49.348056;-124.443889;Town;British Columbia
Quesnel;52.979722;-122.493611;City;British Columbia
Radium Hot Springs;50.62;-116.076111;Village;British Columbia
Revelstoke;50.998889;-118.195833;City;British Columbia
Richmond;49.163333;-123.163333;City;British Columbia
Rossland;49.076944;-117.802222;City;British Columbia
Saanich;48.456667;-123.373333;District Municipality;British Columbia
Salmo;49.193333;-117.278611;Village;British Columbia
Salmon Arm;50.701389;-119.278056;City;British Columbia
Sayward;50.378889;-125.959444;Village;British Columbia
Sechelt;49.471667;-123.763333;District Municipality;British Columbia
Sicamous;50.836111;-118.98;District Municipality;British Columbia
Sidney;48.650556;-123.398333;Town;British Columbia
Silverton;49.952778;-117.357222;Village;British Columbia
Slocan;49.767778;-117.466111;Village;British Columbia
Smithers;54.779167;-127.176111;Town;British Columbia
Sooke;48.382778;-123.731944;District Municipality;British Columbia
Spallumcheen;50.4025;-119.2175;District Municipality;British Columbia
Sparwood;49.733333;-114.885833;District Municipality;British Columbia
Squamish;49.698056;-123.155833;District Municipality;British Columbia
Stewart;55.938333;-129.991111;District Municipality;British Columbia
Summerland;49.602222;-119.681944;District Municipality;British Columbia
Sun Peaks;50.884444;-119.879444;Mountain Resort Municipality;British Columbia
Surrey;49.111667;-122.8275;City;British Columbia
Tahsis;49.916389;-126.664444;Village;British Columbia
Taylor;56.159167;-120.686667;District Municipality;British Columbia
Telkwa;54.696667;-127.050833;Village;British Columbia
Terrace;54.516389;-128.599722;City;British Columbia
Tofino;49.153056;-125.904444;District Municipality;British Columbia
Trail;49.094444;-117.709167;City;British Columbia
Tumbler Ridge;55.126111;-120.998056;District Municipality;British Columbia
Ucluelet;48.942778;-125.546111;District Municipality;British Columbia
Valemount;52.829444;-119.28;Village;British Columbia
Vancouver;49.261111;-123.113889;City;British Columbia
Vanderhoof;54.0175;-124.0075;District Municipality;British Columbia
Vernon;50.266667;-119.271667;City;British Columbia
Victoria;48.428333;-123.364722;City;British Columbia
View Royal;48.451944;-123.434167;Town;British Columbia
Village of Queen Charlotte;53.254722;-132.1025;Village;British Columbia
Warfield;49.094167;-117.749167;Village;British Columbia
Wells;53.104444;-121.5725;District Municipality;British Columbia
West Vancouver;49.331111;-123.159722;District Municipality;British Columbia
Whistler;50.117222;-122.954722;Resort Municipality;British Columbia
White Rock;49.023611;-122.798333;City;British Columbia
Williams Lake;52.129167;-122.14;City;British Columbia
Zeballos;49.9825;-126.846111;Village;British Columbia
Albert Beach;50.680556;-96.513611;Locality;Manitoba
Alexander;49.83;-100.29528;Local Urban District;Manitoba
Alonsa;50.798889;-98.974444;Local Urban District;Manitoba
Altamont;49.398611;-98.497222;Local Urban District;Manitoba
Altona;49.104722;-97.558889;Town;Manitoba
Amaranth;50.595556;-98.738333;Local Urban District;Manitoba
Amery;56.565;-94.0625;Community;Manitoba
Angusville;50.735556;-101.02056;Local Urban District;Manitoba
Anola;49.885;-96.635556;Community;Manitoba
Arborg;50.907222;-97.216944;Town;Manitoba
Arden;50.277222;-99.269722;Local Urban District;Manitoba
Argyle;50.181111;-97.454444;Community;Manitoba
Arnaud;49.250278;-97.103889;Community;Manitoba
Arnes;50.801944;-96.993889;Community;Manitoba
Arnot;55.767222;-96.684722;Locality;Manitoba
Ashern;51.182222;-98.345556;Local Urban District;Manitoba
Ashville;51.175;-100.29583;Community;Manitoba
Athapap;54.573889;-101.68278;Community;Manitoba
Atik;54.294167;-101.39417;Locality;Manitoba
Aubigny;49.458056;-97.245833;Community;Manitoba
Austin;49.950278;-98.936111;Local Urban District;Manitoba
Baden;52.780278;-101.21583;Northern Community;Manitoba
Badger;49.190278;-95.959167;Community;Manitoba
Bagot;49.969167;-98.63;Community;Manitoba
Bakers Narrows;54.677222;-101.66028;Locality;Manitoba
Baldur;49.385278;-99.243889;Local Urban District;Manitoba
Balmoral;50.256389;-97.318611;Community;Manitoba
Balsam Bay;50.490556;-96.588611;Locality;Manitoba
Barrows;52.829444;-101.44111;Northern Community;Manitoba
Basswood;50.301389;-100.03361;Community;Manitoba
Beaconia;50.445556;-96.5575;Community;Manitoba
Beaudry;49.858611;-97.496944;Locality;Manitoba
Beaumont;49.844722;-97.159167;Neighbourhood;Manitoba
Beausejour;50.062222;-96.516111;Town;Manitoba
Bedford;49.3725;-96.321667;Railway Point;Manitoba
Belair;50.605556;-96.554444;Community;Manitoba
Belleview;49.604722;-100.85667;Community;Manitoba
Bellsite;52.594167;-101.05972;Community;Manitoba
Belmont;49.409444;-99.456389;Local Urban District;Manitoba
Benito;51.913889;-101.54833;Village;Manitoba
Berens River;52.365278;-97.029167;Northern Community;Manitoba
Beresford;49.730278;-100.19694;Community;Manitoba
Bethany;50.3125;-99.75;Community;Manitoba
Beulah;50.260556;-101.03667;Community;Manitoba
Bield;51.221111;-101.15389;Community;Manitoba
Binscarth;50.626667;-101.28278;Village;Manitoba
Birch Bay;51.478889;-98.538889;Locality;Manitoba
Birch River;52.396111;-101.10389;Local Urban District;Manitoba
Bird River;50.412778;-95.679444;Locality;Manitoba
Birds Hill;49.975;-97.005278;Community;Manitoba
Birdtail;50.726944;-100.88639;Locality;Manitoba
Birdtail Sioux;50.266667;-101.15;Community;Manitoba
Birnie;50.447222;-99.44;Community;Manitoba
Birtle;50.4225;-101.0475;Town;Manitoba
Bissett;51.025;-95.681111;Northern Community;Manitoba
Bloodvein;51.790833;-96.705278;Community;Manitoba
Blumenfeld;49.050278;-97.958889;Community;Manitoba
Blumengart;49.132778;-97.795833;Locality;Manitoba
Blumenort;49.604444;-96.688889;Local Urban District;Manitoba
Boggy Creek;51.535;-101.35361;Community;Manitoba
Boissevain;49.230556;-100.055;Town;Manitoba
Bowsman;52.235833;-101.20722;Village;Manitoba
Bradwardine;49.995556;-100.46361;Community;Manitoba
Brandon;49.846944;-99.952222;City;Manitoba
Briggs Spur;52.078889;-100.65306;Community;Manitoba
Bristol;49.472778;-96.738333;Locality;Manitoba
Broad Valley;50.985556;-97.651111;Community;Manitoba
Brochet;57.879722;-101.67111;Northern Community;Manitoba
Brokenhead;50.239444;-96.4875;Locality;Manitoba
Brokenhead Reserve;50.372222;-96.625;Community;Manitoba
Brooklands;49.920833;-97.2;Neighbourhood;Manitoba
Broomhill;49.393056;-101.0875;Locality;Manitoba
Brunkild;49.592778;-97.574444;Community;Manitoba
Bruxelles;49.4875;-98.918611;Community;Manitoba
Buffalo Point;49.011111;-95.238889;Community;Manitoba
Caliento;49.133611;-96.415;Community;Manitoba
Camper;51.070833;-98.26;Community;Manitoba
Camperville;51.988333;-100.14278;Northern Community;Manitoba
Carberry;49.868889;-99.359444;Town;Manitoba
Cardale;50.236667;-100.32111;Community;Manitoba
Carman;49.499167;-98.000833;Town;Manitoba
Carroll;49.6075;-100.03194;Community;Manitoba
Cartwright;49.095556;-99.34;Village;Manitoba
Channing;54.753611;-101.8325;Community;Manitoba
Chater;49.867222;-99.831389;Community;Manitoba
Chatfield;50.783889;-97.570833;Community;Manitoba
Churchill;58.780833;-94.186944;Town;Manitoba
Clandeboye;50.243611;-96.971389;Community;Manitoba
Clanwilliam;50.361944;-99.814722;Community;Manitoba
Clarkleigh;50.594444;-98.014444;Locality;Manitoba
Cormorant;54.223889;-100.60028;Northern Community;Manitoba
Coulter;49.090833;-100.98528;Community;Manitoba
Cowan;52.035;-100.64778;Community;Manitoba
Cracknell;50.8625;-101.24056;Community;Manitoba
Cranberry Portage;54.586111;-101.37722;Local Urban District;Manitoba
Crandall;50.15;-100.78444;Community;Manitoba
Crane River;51.535556;-99.281111;Northern Community;Manitoba
Cromer;49.731389;-101.235;Community;Manitoba
Cross Lake;54.625833;-97.778889;Northern Community;Manitoba
Crystal City;49.146389;-98.948889;Village;Manitoba
Culross;49.714167;-97.911111;Community;Manitoba
Culver;49.894444;-95.670278;Locality;Manitoba
Cypress River;49.555833;-99.086667;Local Urban District;Manitoba
Dacotah;49.875278;-97.638611;Community;Manitoba
Dallas;51.392222;-97.485;Northern Community;Manitoba
Darlingford;49.203889;-98.378056;Local Urban District;Manitoba
Dauphin;51.149444;-100.04944;City;Manitoba
Dauphin River;51.959722;-98.065278;Northern Community;Manitoba
Dawson Bay;52.976667;-100.97972;Northern Community;Manitoba
Deacons Corner;49.820278;-96.934167;Community;Manitoba
Deerhorn;50.779722;-98.040833;Community;Manitoba
Deerwood;49.397778;-98.386389;Locality;Manitoba
Deleau;49.581111;-100.57528;Community;Manitoba
Deloraine;49.190833;-100.49389;Town;Manitoba
Delta Beach;50.186667;-98.320278;Community;Manitoba
Dog Creek;50.908333;-98.597222;Community;Manitoba
Domain;49.614167;-97.321389;Community;Manitoba
Dominion City;49.141944;-97.155556;Local Urban District;Manitoba
Douglas;49.893333;-99.710556;Community;Manitoba
Dropmore;51.016944;-101.44222;Community;Manitoba
Duck Bay;52.176389;-100.14917;Northern Community;Manitoba
Dufresne;49.726944;-96.723333;Community;Manitoba
Dufrost;49.358333;-97.051667;Community;Manitoba
Dugald;49.8861110;-96.8380560;Community;Manitoba
Dunrea;49.405833;-99.730833;Local Urban District;Manitoba
Durban;51.929167;-101.44056;Community;Manitoba
East Braintree;49.619444;-95.623333;Community;Manitoba
East Selkirk;50.1375;-96.833056;Community;Manitoba
Easterville;53.1075;-99.812778;Community;Manitoba
Ebb and Flow;51.038056;-99.067778;Locality;Manitoba
Eddystone;51.090278;-99.149722;Community;Manitoba
Eden;50.376389;-99.469444;Community;Manitoba
Edwin;49.889444;-98.515;Community;Manitoba
Elgin;49.443889;-100.26917;Local Urban District;Manitoba
Elie;49.901667;-97.758333;Local Urban District;Manitoba
Elkhorn;49.975556;-101.23944;Village;Manitoba
Elm Creek;49.675556;-97.9925;Local Urban District;Manitoba
Elma;49.875;-95.908056;Community;Manitoba
Elphinstone;50.531111;-100.32194;Local Urban District;Manitoba
Elva;49.216111;-101.11528;Community;Manitoba
Emerson;49.006944;-97.214722;Town;Manitoba
Erickson;50.498056;-99.911389;Town;Manitoba
Eriksdale;50.862778;-98.101111;Community;Manitoba
Ethelbert;51.529167;-100.39333;Village;Manitoba
Fairfax;49.435;-100.12833;Community;Manitoba
Fairford;51.585556;-98.710278;Community;Manitoba
Falcon Lake;49.686389;-95.326111;Community;Manitoba
Fannystelle;49.744722;-97.777778;Community;Manitoba
Faulkner;51.422778;-98.6625;Community;Manitoba
Ferndale;49.723889;-97.514722;Locality;Manitoba
Firdale;49.982222;-99.109722;Community;Manitoba
Fisher Branch;51.083056;-97.62;Local Urban District;Manitoba
Fisher River Cree Nation;51.438889;-97.366667;Community;Manitoba
Flin Flon;54.768056;-101.8641699;City;Manitoba
Fork River;51.511667;-100.02028;Community;Manitoba
Forrest;49.966389;-99.936667;Community;Manitoba
Fort Alexander;50.608889;-96.295556;Community;Manitoba
Fortier;49.935;-97.916111;Community;Manitoba
Foxwarren;50.517222;-101.15139;Community;Manitoba
Franklin;50.244167;-99.664722;Community;Manitoba
Fraserwood;50.639444;-97.214444;Community;Manitoba
Gambler;50.595;-101.38333;Community;Manitoba
Garden Hill;53.883333;-94.648889;Community;Manitoba
Gardenton;49.086944;-96.695;Community;Manitoba
Garland;51.653333;-100.45944;Community;Manitoba
Garson;50.077778;-96.706667;Village;Manitoba
Gilbert Plains;51.149722;-100.487778;Town;Manitoba
Gillam;56.347222;-94.707778;Town;Manitoba
Gimli;50.633611;-96.99;Town;Manitoba
Giroux;49.574444;-96.567222;Community;Manitoba
Gladstone;50.225833;-98.95;Town;Manitoba
Glass;49.885278;-96.726944;Community;Manitoba
Glenboro;49.555833;-99.291111;Village;Manitoba
Glencairn;50.6525;-99.305556;Community;Manitoba
Glencross;49.117222;-98.014444;Locality;Manitoba
Glenella;50.556944;-99.192778;Local Urban District;Manitoba
Glenlea;49.635556;-97.135;Community;Manitoba
Glenora;49.252222;-99.154444;Community;Manitoba
Gnadenfeld;49.073889;-97.526667;Community;Manitoba
Gnadenthal;49.098056;-97.796944;Community;Manitoba
Gods Lake;54.670556;-94.153889;Community;Manitoba
Gods Lake Narrows;54.554722;-94.476389;Northern Community;Manitoba
Gods River;54.841667;-94.09;Community;Manitoba
Goodlands;49.094444;-100.60389;Community;Manitoba
Grahamdale;51.392222;-98.499722;Community;Manitoba
Grand Beach;50.554167;-96.633333;Community;Manitoba
Grand Marais;50.541667;-96.619444;Community;Manitoba
Grand Rapids;53.178333;-99.264722;Town;Manitoba
Grande Pointe;49.766667;-97.05;Community;Manitoba
Grandview;51.174167;-100.69778;Town;Manitoba
Graysville;49.509167;-98.1575;Community;Manitoba
Great Falls;50.459444;-96.012222;Community;Manitoba
Gretna;49.007778;-97.561667;Town;Manitoba
Griswold;49.775;-100.47083;Local Urban District;Manitoba
Grosse Isle;50.063611;-97.441667;Community;Manitoba
Grunthal;49.406667;-96.858056;Local Urban District;Manitoba
Gull Harbour;51.199167;-96.62;Locality;Manitoba
Gull Lake;50.4061158;-96.5194683;Locality;Manitoba
Gunton;50.318056;-97.266111;Community;Manitoba
Gypsumville;51.768889;-98.634722;Community;Manitoba
Hadashville;49.676667;-95.9075;Community;Manitoba
Halbstadt;49.045556;-97.37;Community;Manitoba
Hallboro;50.146389;-99.448333;Community;Manitoba
Hamiota;50.180555;-100.596111;Town;Manitoba
Hargrave;49.917222;-101.07194;Community;Manitoba
Harrowby;50.755556;-101.45222;Community;Manitoba
Hartney;49.480833;-100.5225;Town;Manitoba
Haskett;49.018333;-97.972222;Community;Manitoba
Haywood;49.666667;-98.196389;Local Urban District;Manitoba
Hazel;49.878611;-96.247222;Railway Point;Manitoba
Hazelglen;50.018056;-96.635833;Locality;Manitoba
Hazelridge;49.965833;-96.715278;Community;Manitoba
Headingley;49.875278;-97.408333;Neighbourhood;Manitoba
Hecla;51.135;-96.665278;Community;Manitoba
Herb Lake Landing;54.656944;-99.788889;Northern Community;Manitoba
High Bluff;50.018889;-98.148056;Community;Manitoba
Highrock;55.817778;-100.39639;Community;Manitoba
Hilbre;51.503333;-98.593333;Community;Manitoba
Hilton;49.506111;-99.525;Community;Manitoba
Hnausa;50.905;-96.995556;Community;Manitoba
Hochfeld;49.078056;-97.936944;Community;Manitoba
Hochstadt;49.474167;-96.872778;Locality;Manitoba
Hodgson;51.215;-97.571667;Community;Manitoba
Holland;49.5975;-98.879444;Local Urban District;Manitoba
Hollow Water;51.1925;-96.301944;Community;Manitoba
Holmfield;49.135556;-99.485556;Local Urban District;Manitoba
Homewood;49.508611;-97.864167;Community;Manitoba
Horndean;49.1925;-97.655556;Community;Manitoba
Howden;49.711389;-97.131944;Community;Manitoba
Ile des Chenes;49.710556;-96.988333;Community;Manitoba
Ilford;56.064722;-95.606944;Northern Community;Manitoba
Inglis;50.944722;-101.25111;Local Urban District;Manitoba
Inwood;50.506389;-97.495556;Community;Manitoba
Ipswich;50.418333;-100.48083;Locality;Manitoba
Isabella;50.266944;-100.87333;Community;Manitoba
Jackhead;51.916667;-97.311111;Community;Manitoba
Jenpeg;54.525833;-98.036389;Community;Manitoba
Jordan;49.37;-98.002222;Railway Point;Manitoba
Justice;49.996111;-99.799167;Community;Manitoba
Kaleida;49.128889;-98.467778;Community;Manitoba
Kane;49.354444;-97.727222;Community;Manitoba
Kelsey;56.039722;-96.541389;Locality;Manitoba
Kelwood;50.624722;-99.461667;Local Urban District;Manitoba
Kemnay;49.841667;-100.13417;Community;Manitoba
Kenton;49.9875;-100.61417;Local Urban District;Manitoba
Kenville;52.000278;-101.32361;Community;Manitoba
Kettle Rapids;56.409722;-94.530278;Railway Point;Manitoba
Killarney;49.183333;-99.662778;Town;Manitoba
Kinosota;50.905833;-98.866389;Locality;Manitoba
Kirkella;50.023889;-101.36528;Community;Manitoba
Kirkness;50.078333;-96.861944;Community;Manitoba
Kleefeld;49.501389;-96.874722;Community;Manitoba
Kola;49.843333;-101.37056;Community;Manitoba
Komarno;50.506667;-97.250556;Community;Manitoba
La Broquerie;49.516944;-96.499722;Local Urban District;Manitoba
La Riviere;49.238333;-98.678889;Local Urban District;Manitoba
La Salle;49.693056;-97.263889;Community;Manitoba
Lac Brochet;58.62;-101.48389;Community;Manitoba
Lac du Bonnet;50.253611;-96.060556;Town;Manitoba
Ladysmith;49.8075;-98.824167;Locality;Manitoba
Ladywood;50.179444;-96.496389;Community;Manitoba
Lake Francis;50.300833;-97.806111;Community;Manitoba
Lake St. Martin;51.747222;-98.419444;Community;Manitoba
Landmark;49.671667;-96.821667;Local Urban District;Manitoba
Langruth;50.385278;-98.674167;Community;Manitoba
Lauder;49.390556;-100.67694;Community;Manitoba
Laurier;50.889722;-99.560278;Local Urban District;Manitoba
Lavenham;49.796111;-98.719444;Community;Manitoba
Leaf Rapids;56.466667;-99.75;Town;Manitoba
Ledwyn;50.993333;-97.133611;Locality;Manitoba
Lee River;50.291111;-95.871944;Community;Manitoba
Lenswood;52.320556;-100.95194;Community;Manitoba
Letellier;49.135833;-97.303056;Community;Manitoba
Libau;50.268889;-96.719167;Community;Manitoba
Lilyfield;50.004722;-97.275833;Locality;Manitoba
Limestone;56.524444;-94.129167;Railway Point;Manitoba
Little Grand Rapids;52.036111;-95.461111;Northern Community;Manitoba
Lockport;50.083056;-96.944444;Community;Manitoba
Long Plain;49.843056;-98.475;Community;Manitoba
Lorette;49.739167;-96.871667;Local Urban District;Manitoba
Lowe Farm;49.354722;-97.588889;Community;Manitoba
Lundar;50.695556;-98.030833;Local Urban District;Manitoba
Lyleton;49.057778;-101.17778;Local Urban District;Manitoba
Lynn Lake;56.825;-101.075;Town;Manitoba
Macdonald;50.0575;-98.466389;Community;Manitoba
MacGregor;49.966111;-98.778611;Town;Manitoba
Mafeking;52.683611;-101.11;Local Urban District;Manitoba
Makinak;50.982778;-99.664722;Local Urban District;Manitoba
Mallard;51.953056;-99.558889;Northern Community;Manitoba
Malonton;50.574722;-97.215278;Community;Manitoba
Manigotagan;51.108889;-96.304722;Northern Community;Manitoba
Manitou;49.240555;-98.536667;Town;Manitoba
Marchand;49.444444;-96.386111;Community;Manitoba
Mariapolis;49.3625;-98.988889;Local Urban District;Manitoba
Marquette;50.064444;-97.732778;Community;Manitoba
Mather;49.098889;-99.191111;Local Urban District;Manitoba
Matheson Island;51.741111;-96.922222;Northern Community;Manitoba
Matlock;50.433889;-96.963889;Neighbourhood;Manitoba
McAuley;50.262222;-101.38861;Community;Manitoba
McConnell;50.268333;-100.52861;Community;Manitoba
McCreary;50.773056;-99.492222;Village;Manitoba
McMunn;49.630556;-95.7025;Community;Manitoba
McTavish;49.458889;-97.368889;Community;Manitoba
Meadow Portage;51.668056;-99.607222;Northern Community;Manitoba
Medika;49.737778;-95.877778;Locality;Manitoba
Medora;49.254722;-100.69611;Community;Manitoba
Melbourne;49.873333;-99.189167;Locality;Manitoba
Meleb;50.728611;-97.216667;Community;Manitoba
Melita;49.268056;-100.99583;Town;Manitoba
Miami;49.371111;-98.243889;Local Urban District;Manitoba
Middlebro;49.019722;-95.441389;Community;Manitoba
Middlechurch;49.979722;-97.067222;Community;Manitoba
Milner Ridge;50.171667;-96.238611;Community;Manitoba
Miniota;50.143333;-101.03306;Local Urban District;Manitoba
Minitonas;52.086111;-101.03917;Town;Manitoba
Minnedosa;50.245278;-99.842778;Town;Manitoba
Minto;49.4075;-100.02111;Local Urban District;Manitoba
Mitchell;49.534167;-96.761944;Local Urban District;Manitoba
Molson;50.024444;-96.307778;Community;Manitoba
Moose Lake;53.704444;-100.31028;Northern Community;Manitoba
Moosehorn;51.291389;-98.422778;Community;Manitoba
Morden;49.191944;-98.100556;Town;Manitoba
Morris;49.355;-97.365;Town;Manitoba
Morweena;50.995;-97.408889;Community;Manitoba
Mulvihill;50.966667;-98.179722;Community;Manitoba
Myrtle;49.353333;-97.836667;Community;Manitoba
Napinka;49.3225;-100.84111;Community;Manitoba
Narcisse;50.683333;-97.529722;Community;Manitoba
National Mills;52.829167;-101.58028;Northern Community;Manitoba
Neepawa;50.228889;-99.465556;Town;Manitoba
Nelson House;55.783333;-98.888333;Northern Community;Manitoba
Nesbitt;49.601389;-99.862778;Community;Manitoba
Neuhorst;49.0075;-97.74;Community;Manitoba
New Bothwell;49.590556;-96.890278;Community;Manitoba
Newdale;50.351667;-100.20333;Local Urban District;Manitoba
Newton;49.9275;-98.078056;Community;Manitoba
Ninette;49.4;-99.628611;Local Urban District;Manitoba
Ninga;49.2275;-99.889444;Local Urban District;Manitoba
Niverville;49.605556;-97.041667;Town;Manitoba
Norgate;50.683056;-99.469444;Locality;Manitoba
Norway House;53.990278;-97.815556;Northern Community;Manitoba
Notre-Dame-de-Lourdes;49.533056;-98.557778;Village;Manitoba
Oak Bluff;49.773611;-97.321389;Community;Manitoba
Oak Lake;49.766389;-100.62806;Town;Manitoba
Oak Point;50.506111;-98.029167;Community;Manitoba
Oak River;50.135833;-100.43;Local Urban District;Manitoba
Oakbank;49.943611;-96.842778;Community;Manitoba
Oakburn;50.565278;-100.57889;Community;Manitoba
Oakland;50.1075;-98.318889;Community;Manitoba
Oakner;50.09;-100.58889;Community;Manitoba
Oakville;49.929444;-98.003889;Local Urban District;Manitoba
Ochre Beach;51.127222;-99.791667;Community;Manitoba
Ochre River;51.062222;-99.78;Local Urban District;Manitoba
Onanole;50.6225;-99.968056;Community;Manitoba
Osborne;49.541944;-97.368889;Community;Manitoba
Ostenfeld;49.8025;-96.480556;Locality;Manitoba
Osterwick;49.088333;-97.995556;Community;Manitoba
Otterburne;49.497222;-97.051667;Locality;Manitoba
Overflowing River;53.141389;-101.09278;Community;Manitoba
Oxford House;54.948333;-95.265556;Northern Community;Manitoba
Paint Lake;55.507778;-98.001944;Locality;Manitoba
Pansy;49.326111;-96.713889;Locality;Manitoba
Pauingassi;52.155556;-95.373889;Community;Manitoba
Peguis;51.304167;-97.563889;Community;Manitoba
Pelican Rapids;52.744722;-100.69444;Northern Community;Manitoba
Petersfield;50.304444;-96.968611;Community;Manitoba
Pierson;49.18;-101.2625;Local Urban District;Manitoba
Pikwitonei;55.587778;-97.155556;Northern Community;Manitoba
Pilot Mound;49.201389;-98.893889;Town;Manitoba
Pinawa;50.148889;-95.880556;Community;Manitoba
Pine Creek;52.003333;-100.15;Community;Manitoba
Pine Dock;51.641667;-96.805556;Northern Community;Manitoba
Pine River;51.784167;-100.53056;Local Urban District;Manitoba
Piney;49.075278;-95.978333;Community;Manitoba
Pipestone;49.557778;-100.94556;Community;Manitoba
Pleasant Valley;49.278611;-99.466389;Locality;Manitoba
Plum Coulee;49.191111;-97.760556;Town;Manitoba
Plumas;50.384722;-99.086389;Local Urban District;Manitoba
Pointe du Bois;50.300833;-95.551389;Community;Manitoba
Polonia;50.388889;-99.62;Community;Manitoba
Ponemah;50.469167;-96.956944;Neighbourhood;Manitoba
Ponton;54.643333;-99.158889;Railway Point;Manitoba
Poplar Point;50.056944;-97.976667;Community;Manitoba
Poplar River;52.994444;-97.277778;Community;Manitoba
Poplarfield;50.890833;-97.606944;Community;Manitoba
Portage la Prairie;49.972778;-98.291944;City;Manitoba
Powell;52.828333;-101.39667;Northern Community;Manitoba
Powerview-Pine Falls;50.567222;-96.196944;Town;Manitoba
Prairie Grove;49.796944;-96.959722;Community;Manitoba
Prawda;49.650833;-95.793611;Community;Manitoba
Princess Harbour;51.861667;-96.872778;Northern Community;Manitoba
Pukatawagan;55.742222;-101.31583;Community;Manitoba
Pulp River;51.798889;-100.29583;Locality;Manitoba
Rapid City;50.120833;-100.03583;Town;Manitoba
Rathwell;49.646944;-98.546389;Local Urban District;Manitoba
Red Deer Lake;52.893611;-101.45972;Northern Community;Manitoba
Red Rose;51.466111;-97.538333;Northern Community;Manitoba
Red Sucker Lake;54.16;-93.567222;Northern Community;Manitoba
Reinfeld;49.177778;-97.885556;Community;Manitoba
Reinland;49.041667;-97.871389;Community;Manitoba
Rennie;49.852778;-95.552778;Community;Manitoba
Renwer;52.0975;-100.81306;Community;Manitoba
Reston;49.5575;-101.09333;Local Urban District;Manitoba
Reykjavik;51.198611;-98.9025;Community;Manitoba
Richer;49.6575;-96.456944;Local Urban District;Manitoba
Ridgeville;49.065833;-97.011944;Community;Manitoba
Riding Mountain;50.531944;-99.466111;Community;Manitoba
Ritchot;49.803889;-97.109444;Neighbourhood;Manitoba
River Hills;50.076111;-96.026944;Community;Manitoba
Rivers;50.030833;-100.23944;Town;Manitoba
Riverside;49.409167;-97.4175;Community;Manitoba
Riverton;50.998333;-96.996111;Village;Manitoba
Roblin;51.23;-101.35556;Town;Manitoba
Roland;49.366389;-97.94;Community;Manitoba
Rolling River;50.455556;-99.986111;Community;Manitoba
Rorketon;51.389444;-99.588611;Community;Manitoba
Rosa;49.243611;-96.826111;Locality;Manitoba
Roseau River;49.184167;-96.825556;Community;Manitoba
Rosebank;49.370556;-98.113333;Community;Manitoba
Roseisle;49.5;-98.344167;Community;Manitoba
Roseland;49.798056;-100.07556;Community;Manitoba
Rosenfeld;49.199167;-97.548889;Local Urban District;Manitoba
Rosengart;49.019167;-97.860556;Community;Manitoba
Rosenort;49.458611;-97.434167;Local Urban District;Manitoba
Rosetown;49.045556;-97.745278;Community;Manitoba
Ross;49.760556;-96.433056;Community;Manitoba
Rossburn;50.669167;-100.81111;Town;Manitoba
Rossdale;50.091389;-97.003333;Locality;Manitoba
Rossendale;49.826667;-98.619444;Community;Manitoba
Rosser;49.990556;-97.451944;Community;Manitoba
Rossville;53.996944;-97.785278;Community;Manitoba
Russell;50.780833;-101.28389;Town;Manitoba
San Clara;51.493333;-101.42833;Community;Manitoba
Sandy Bay;50.55;-98.647222;Community;Manitoba
Sandy Hook;50.544722;-96.985278;Community;Manitoba
Sandy Lake;50.527222;-100.17833;Local Urban District;Manitoba
Sanford;49.6825;-97.444167;Community;Manitoba
Sarto;49.399722;-96.743611;Community;Manitoba
Scarth;49.730278;-100.94972;Community;Manitoba
Schanzenfeld;49.132778;-97.941667;Community;Manitoba
Sclater;51.929722;-100.60972;Locality;Manitoba
Seddons Corner;50.061944;-96.290833;Community;Manitoba
Selkirk;50.143611;-96.883889;City;Manitoba
Seven Oaks;49.938056;-97.106944;Neighbourhood;Manitoba
Seven Sisters Falls;50.105833;-96.015556;Community;Manitoba
Seymourville;51.186389;-96.326944;Northern Community;Manitoba
Shamattawa;55.853056;-92.086389;Community;Manitoba
Shellmouth;50.934722;-101.47917;Community;Manitoba
Sherridon;55.123889;-101.08667;Northern Community;Manitoba
Shilo;49.805556;-99.641111;Locality;Manitoba
Shoal Lake;50.437778;-100.59111;Town;Manitoba
Shoal River;52.747222;-100.6875;Community;Manitoba
Shorncliffe;51.082778;-97.126667;Community;Manitoba
Shortdale;51.235;-101.03611;Community;Manitoba
Sidney;49.9;-99.078889;Community;Manitoba
Sifton;51.360278;-100.1425;Community;Manitoba
Silver;50.845833;-97.2175;Community;Manitoba
Silver Falls;50.515;-96.098889;Community;Manitoba
Simonhouse;54.44;-101.38278;Railway Point;Manitoba
Sinclair;49.569167;-101.28778;Community;Manitoba
Sioux Valley;49.854167;-100.5;Community;Manitoba
Skownan;51.989722;-99.587778;Locality;Manitoba
Slave Falls;50.227778;-95.564444;Locality;Manitoba
Snow Lake;54.878889;-100.03667;Town;Manitoba
Snowflake;49.0475;-98.659167;Community;Manitoba
Solsgirth;50.490278;-100.91389;Community;Manitoba
Somerset;49.412222;-98.660556;Village;Manitoba
Sommerfeld;49.071944;-97.448333;Community;Manitoba
Souris;49.617222;-100.26028;Town;Manitoba
South Beach;50.6225;-96.987778;Community;Manitoba
South Indian Lake;56.780278;-98.930278;Northern Community;Manitoba
South Junction;49.040556;-95.765556;Community;Manitoba
Southport;49.918056;-98.273611;Community;Manitoba
Spearhill;51.319167;-98.349722;Community;Manitoba
Sperling;49.508056;-97.704722;Community;Manitoba
Split Lake;56.245278;-96.093889;Community;Manitoba
Sprague;49.035278;-95.639167;Community;Manitoba
Spruce Sands;50.785;-96.984444;Locality;Manitoba
Spruce Siding;49.723889;-96.042778;Locality;Manitoba
Sprucewoods;49.820556;-99.651667;Community;Manitoba
St. Adolphe;49.674444;-97.110556;Community;Manitoba
St. Alphonse;49.435278;-99.003056;Community;Manitoba
St. Ambroise;50.257222;-98.036111;Community;Manitoba
St. Claude;49.658611;-98.341667;Village;Manitoba
St. Eustache;49.975278;-97.78;Community;Manitoba
St. Francois Xavier;49.912778;-97.541667;Community;Manitoba
St. Germain;49.769167;-97.127778;Neighbourhood;Manitoba
St. Jean Baptiste;49.265556;-97.339722;Local Urban District;Manitoba
St. Joseph;49.133611;-97.390556;Community;Manitoba
St. Labre;49.332778;-96.035278;Community;Manitoba
St. Laurent;50.412778;-97.940833;Community;Manitoba
St. Leon;49.363611;-98.589444;Local Urban District;Manitoba
St. Malo;49.317222;-96.948889;Local Urban District;Manitoba
St. Martin Junction;51.711389;-98.735;Community;Manitoba
St. Theresa Point;53.831667;-94.848611;Northern Community;Manitoba
Starbuck;49.772222;-97.617222;Community;Manitoba
Ste. Agathe;49.566111;-97.183333;Community;Manitoba
Ste. Amelie;50.984444;-99.382778;Community;Manitoba
Ste. Anne;49.6697219;-96.6494439;Town;Manitoba
Ste. Elizabeth;49.34;-97.187778;Community;Manitoba
Ste. Rita;49.88;-96.295556;Community;Manitoba
Ste. Rose du Lac;51.059444;-99.523333;Town;Manitoba
Stead;50.428889;-96.446389;Community;Manitoba
Steep Rock;51.4425;-98.799722;Community;Manitoba
Ste-Genevieve;49.743611;-96.524167;Locality;Manitoba
Steinbach;49.525833;-96.683889;City;Manitoba
Stephenfield;49.502778;-98.25;Locality;Manitoba
St-Lazare;50.448889;-101.30417;Village;Manitoba
Stockton;49.589444;-99.453056;Community;Manitoba
Stonewall;50.134444;-97.326111;Town;Manitoba
Stony Mountain;50.086389;-97.218889;Community;Manitoba
St-Pierre-Jolys;49.440278;-96.984444;Village;Manitoba
Strathclair;50.404722;-100.39667;Local Urban District;Manitoba
Stuartburn;49.133611;-96.763056;Community;Manitoba
Sundance;56.534167;-94.072222;Locality;Manitoba
Sundown;49.103611;-96.266667;Community;Manitoba
Sunville;50.671111;-99.184444;Locality;Manitoba
Swan Lake;49.411667;-98.791389;Local Urban District;Manitoba
Swan River;52.105833;-101.26667;Town;Manitoba
Tadoule Lake;58.711944;-98.480278;Community;Manitoba
Telford;49.840278;-95.385556;Locality;Manitoba
Teulon;50.385833;-97.261111;Town;Manitoba
Thalberg;50.370278;-96.489722;Community;Manitoba
The Narrows;51.082222;-98.773889;Locality;Manitoba
The Pas;53.825;-101.25333;Town;Manitoba
Thicket Portage;55.318056;-97.686944;Northern Community;Manitoba
Thompson;55.743333;-97.855278;City;Manitoba
Thornhill;49.200278;-98.231667;Community;Manitoba
Thunder Hill;51.997222;-101.52194;Locality;Manitoba
Tidal;58.663056;-94.120278;Railway Point;Manitoba
Tilston;49.393611;-101.31278;Community;Manitoba
Tolstoi;49.074444;-96.811111;Community;Manitoba
Tourond;49.547778;-96.981111;Locality;Manitoba
Toutes Aides;51.485;-99.531667;Community;Manitoba
Traverse Bay;50.6733330;-96.4855560;Locality;Manitoba
Treesbank;49.636111;-99.609444;Community;Manitoba
Treherne;49.629444;-98.697778;Town;Manitoba
Twin Lakes Beach;50.334444;-97.966944;Locality;Manitoba
Two Creeks;50.026111;-101.03472;Community;Manitoba
Tyndall;50.082778;-96.658333;Local Urban District;Manitoba
Tyrrell;54.604167;-99.295833;Locality;Manitoba
Ukraina;51.448333;-100.25583;Community;Manitoba
Underhill;49.443611;-100.38611;Community;Manitoba
Valley River;51.248056;-100.14306;Community;Manitoba
Vassar;49.097778;-95.831389;Community;Manitoba
Vermette;49.798056;-97.063611;Neighbourhood;Manitoba
Victoria Beach;50.702222;-96.562778;Community;Manitoba
Vidir;51.015278;-97.295556;Locality;Manitoba
Virden;49.850833;-100.93167;Town;Manitoba
Vita;49.133889;-96.561389;Local Urban District;Manitoba
Vivian;49.884722;-96.4575;Community;Manitoba
Vogar;50.951944;-98.645;Hamlet;Manitoba
Wabowden;54.908889;-98.629722;Northern Community;Manitoba
Waldersee;50.560556;-99.054444;Hamlet;Manitoba
Wallace Lake;51.001667;-95.353889;Locality;Manitoba
Wampum;49.044444;-95.832778;Locality;Manitoba
Wanless;54.178333;-101.36083;Hamlet;Manitoba
Warren;50.131667;-97.546667;Local Urban District;Manitoba
Wasagamack;53.908333;-94.945833;Community;Manitoba
Wasagaming;50.658333;-99.968611;Community;Manitoba
Washow Bay;51.126667;-96.990278;Locality;Manitoba
Waskada;49.096667;-100.80194;Village;Manitoba
Waterhen;51.83;-99.543333;Northern Community;Manitoba
Wawanesa;49.595;-99.683889;Village;Manitoba
Waywayseecappo;50.718056;-100.88111;Community;Manitoba
Weesakachak;53.743889;-93.792222;Locality;Manitoba
Wekusko;54.503333;-99.751111;Community;Manitoba
Wellwood;50.039722;-99.332222;Community;Manitoba
West Hawk Lake;49.741667;-95.202778;Community;Manitoba
Westbourne;50.129722;-98.581111;Community;Manitoba
Weston;49.916111;-97.19;Neighbourhood;Manitoba
Westray;53.596944;-101.40389;Community;Manitoba
Westwood;49.873056;-97.2925;Neighbourhood;Manitoba
Wheatland;50.016667;-100.29556;Community;Manitoba
White Lake;50.029444;-95.513611;Locality;Manitoba
White Mud Falls;50.466667;-96.065278;Community;Manitoba
Whitemouth;49.954167;-95.975278;Community;Manitoba
Whitewater;49.207222;-100.28389;Community;Manitoba
Windygates;49.000556;-98.364722;Locality;Manitoba
Winkler;49.181667;-97.940278;City;Manitoba
Winnipeg;49.884444;-97.146389;City;Manitoba
Winnipeg Beach;50.499722;-96.974722;Town;Manitoba
Winnipegosis;51.648611;-99.925833;Village;Manitoba
Wood Bay;49.251111;-98.816111;Locality;Manitoba
Woodlands;50.207222;-97.66;Community;Manitoba
Woodridge;49.283889;-96.147778;Community;Manitoba
Woodside;50.181389;-98.777222;Community;Manitoba
York Factory;57.001667;-92.305833;Locality;Manitoba
York Landing;56.088889;-96.101667;Community;Manitoba
Zhoda;49.284444;-96.510556;Locality;Manitoba
Alma;45.651667;-64.925;Village;New Brunswick
Aroostook;46.805933;-67.723932;Village;New Brunswick
Atholville;47.988948;-66.720569;Village;New Brunswick
Baker-Brook;47.308889;-68.515556;Village;New Brunswick
Balmoral;47.9625;-66.47;Village;New Brunswick
Bas-Caraquet;47.800758;-64.832199;Village;New Brunswick
Bath;46.511842;-67.595044;Village;New Brunswick
Bathurst;47.626111;-65.628333;City;New Brunswick
Belledune;47.864444;-65.921389;Village;New Brunswick
Beresford;47.711011;-65.705958;Town;New Brunswick
Bertrand;47.747043;-65.076593;Village;New Brunswick
Blacks Harbour;45.058877;-66.784847;Village;New Brunswick
Blackville;46.730362;-65.830456;Village;New Brunswick
Bouctouche;46.468333;-64.740278;Town;New Brunswick
Cambridge-Narrows;45.811944;-65.965278;Village;New Brunswick
Campbellton;47.999336;-66.683511;City;New Brunswick
Campobello Island;44.885984;-66.910968;Rural Community;New Brunswick
Canterbury;45.890619;-67.464487;Village;New Brunswick
Cap-Pele;46.216667;-64.266667;Village;New Brunswick
Caraquet;47.765556;-64.95;Town;New Brunswick
Centreville;46.430804;-67.71163;Village;New Brunswick
Charlo;47.993448;-66.304915;Village;New Brunswick
Chipman;46.177828;-65.877476;Village;New Brunswick
Clair;47.252649;-68.603364;Village;New Brunswick
Dalhousie;48.048611;-66.390278;Town;New Brunswick
Dieppe;46.078333;-64.688611;City;New Brunswick
Doaktown;46.563889;-66.115278;Village;New Brunswick
Dorchester;45.899251;-64.516608;Village;New Brunswick
Drummond;47.035396;-67.682328;Village;New Brunswick
Edmundston;47.377222;-68.294444;City;New Brunswick
Eel River Crossing;48.015804;-66.421875;Village;New Brunswick
Florenceville-Bristol;46.452132;-67.606442;Town;New Brunswick
Fredericton;45.945278;-66.666667;City;New Brunswick
Fredericton Junction;45.662987;-66.613586;Village;New Brunswick
Gagetown;45.77;-66.162778;Village;New Brunswick
Grand Bay-Westfield;45.340556;-66.253889;Town;New Brunswick
Grand Falls;47.0525;-67.735;Town;New Brunswick
Grand Manan;44.698056;-66.822222;Village;New Brunswick
Grande-Anse;47.813361;-65.182163;Village;New Brunswick
Grand-Sault;47.0525;-67.735;Town;New Brunswick
Hampton;45.528611;-65.854722;Town;New Brunswick
Hartland;46.298611;-67.5;Town;New Brunswick
Harvey;45.730054;-67.006455;Village;New Brunswick
Hillsborough;45.922248;-64.645362;Village;New Brunswick
Kedgwick;47.645845;-67.343343;Rural Community;New Brunswick
Lac Baker;47.334942;-68.642709;Village;New Brunswick
Lameque;47.813056;-64.623611;Town;New Brunswick
Le Goulet;47.708889;-64.697778;Village;New Brunswick
Maisonnette;47.820278;-65.023333;Village;New Brunswick
McAdam;45.592222;-67.308056;Village;New Brunswick
Meductic;45.988056;-67.509167;Village;New Brunswick
Memramcook;45.970833;-64.593333;Village;New Brunswick
Millville;46.127335;-67.192184;Village;New Brunswick
Minto;46.077695;-66.078501;Village;New Brunswick
Miramichi;47.004167;-65.466667;City;New Brunswick
Moncton;46.099479;-64.799802;City;New Brunswick
Nackawic;45.9933;-67.22;Town;New Brunswick
Neguac;47.243882;-65.084089;Village;New Brunswick
New Maryland;45.879167;-66.669444;Village;New Brunswick
Nigadoo;47.737778;-65.736111;Village;New Brunswick
Norton;45.650556;-65.731389;Village;New Brunswick
Oromocto;45.847602;-66.470851;Town;New Brunswick
Paquetville;47.66809;-65.108266;Village;New Brunswick
Perth-Andover;46.7228;-67.7117;Village;New Brunswick
Petitcodiac;45.93022;-65.168053;Village;New Brunswick
Petit-Rocher;47.783333;-65.716667;Village;New Brunswick
Plaster Rock;46.908823;-67.395268;Village;New Brunswick
Pointe-Verte;47.854909;-65.76398;Village;New Brunswick
Port Elgin;46.045174;-64.089802;Village;New Brunswick
Quispamsis;45.445736;-65.928736;Town;New Brunswick
Red Rock;46.791194;-66.476865;Locality;New Brunswick
Rexton;46.6429;-64.8714;Village;New Brunswick
Richibucto;46.681071;-64.868952;Town;New Brunswick
Riverside-Albert;45.743149;-64.740286;Village;New Brunswick
Riverview;46.054444;-64.817222;Town;New Brunswick
Riviere-Verte;47.320472;-68.146733;Village;New Brunswick
Rogersville;46.731507;-65.426685;Village;New Brunswick
Rothesay;45.380278;-65.968611;Town;New Brunswick
Sackville;45.918611;-64.385833;Town;New Brunswick
Saint Andrews;45.079907;-67.058373;Town;New Brunswick
Saint John;45.259167;-66.038889;City;New Brunswick
Saint-Antoine;46.362864;-64.752638;Village;New Brunswick
Sainte-Anne-de-Madawaska;47.245181;-68.025857;Village;New Brunswick
Sainte-Marie-Saint-Raphael;47.776944;-64.578889;Village;New Brunswick
Saint-Francois de Madawaska;47.243078;-68.702471;Village;New Brunswick
Saint-Isidore;47.555081;-65.046636;Village;New Brunswick
Saint-Jacques;47.432644;-68.387346;Urban Community;New Brunswick
Saint-Leolin;47.771908;-65.165945;Village;New Brunswick
Saint-Leonard;47.1625;-67.925;Town;New Brunswick
Saint-Louis de Kent;46.736585;-64.971582;Village;New Brunswick
Saint-Quentin;47.513548;-67.392285;Town;New Brunswick
Salisbury;46.028853;-65.043287;Village;New Brunswick
Shediac;46.221272;-64.539767;Town;New Brunswick
Shippagan;47.735556;-64.723611;Town;New Brunswick
St. George;45.132014;-66.820232;Town;New Brunswick
St. Hilaire;47.290717;-68.39962;Village;New Brunswick
St. Martins;45.34827;-65.55554;Village;New Brunswick
St. Stephen;45.180278;-67.296389;Town;New Brunswick
Stanley;46.284444;-66.723333;Village;New Brunswick
Sussex;45.723534;-65.510394;Town;New Brunswick
Sussex Corner;45.7108;-65.4739;Village;New Brunswick
Tide Head;47.983602;-66.767257;Village;New Brunswick
Tracadie-Sheila;47.514444;-64.918056;Town;New Brunswick
Tracy;45.676726;-66.682776;Village;New Brunswick
Woodstock;46.152222;-67.598333;Town;New Brunswick
Admirals Beach;47.0171497;-53.5989861;Town;Newfoundland and Labrador
Anchor Point;51.2389361;-56.7885527;Town;Newfoundland and Labrador
Appleton;48.9817361;-54.8572361;Town;Newfoundland and Labrador
Aquaforte;47.0080555;-52.9563889;Town;Newfoundland and Labrador
Argentia;47.2980555;-53.9855556;Neighbourhood;Newfoundland and Labrador
Arnold's Cove;47.7689194;-53.9917694;Town;Newfoundland and Labrador
Avondale;47.3991028;-53.2264333;Town;Newfoundland and Labrador
Badger;48.9788806;-56.0416916;Town;Newfoundland and Labrador
Baie Verte;49.9087083;-56.1946584;Town;Newfoundland and Labrador
Baine Harbour;47.3659444;-54.8972055;Town;Newfoundland and Labrador
Bauline;47.7008305;-52.8195695;Town;Newfoundland and Labrador
Bay Bulls;47.3261583;-52.793875;Town;Newfoundland and Labrador
Bay de Verde;48.1011611;-52.8895167;Town;Newfoundland and Labrador
Bay L'Argent;47.542664;-54.886061;Town;Newfoundland and Labrador
Bay Roberts;47.5827278;-53.2932639;Town;Newfoundland and Labrador
Baytona;49.3305861;-54.7841194;Town;Newfoundland and Labrador
Beachside;49.6428889;-55.8991139;Town;Newfoundland and Labrador
Bellburns;50.3279667;-57.5284278;Town;Newfoundland and Labrador
Belleoram;47.524733;-55.416094;Town;Newfoundland and Labrador
Benoits Siding;47.8680555;-59.1175;Settlement;Newfoundland and Labrador
Birchy Bay;49.3215389;-54.7361083;Town;Newfoundland and Labrador
Bird Cove;51.0460695;-56.9334055;Town;Newfoundland and Labrador
Bishop's Cove;47.6367556;-53.2327389;Town;Newfoundland and Labrador
Bishop's Falls;49.0209528;-55.4898944;Town;Newfoundland and Labrador
Bonavista;48.6317917;-53.1041333;Town;Newfoundland and Labrador
Botwood;49.1356472;-55.3731528;Town;Newfoundland and Labrador
Branch;46.8822222;-53.9644445;Town;Newfoundland and Labrador
Brent's Cove;49.9369444;-55.7069444;Town;Newfoundland and Labrador
Brighton;49.5400695;-55.6432555;Town;Newfoundland and Labrador
Brigus;47.5329806;-53.2150917;Town;Newfoundland and Labrador
Bryant's Cove;47.6760917;-53.1930222;Town;Newfoundland and Labrador
Buchans;48.8238;-56.8490694;Town;Newfoundland and Labrador
Burgeo;47.6199167;-57.6216334;Town;Newfoundland and Labrador
Burin;47.082841;-55.175272;Town;Newfoundland and Labrador
Burlington;49.7501528;-56.0174223;Town;Newfoundland and Labrador
Burnt Islands;47.6141944;-58.8701306;Town;Newfoundland and Labrador
Campbellton;49.2705194;-54.9319306;Town;Newfoundland and Labrador
Cape Broyle;47.0965195;-52.9414917;Town;Newfoundland and Labrador
Cape Race;46.6597222;-53.0736111;Locality;Newfoundland and Labrador
Cape St. George;48.4957027;-59.1849305;Town;Newfoundland and Labrador
Carbonear;47.7315028;-53.2326611;Town;Newfoundland and Labrador
Carmanville;49.3673055;-54.2905694;Town;Newfoundland and Labrador
Cartwright;53.693779;-56.970056;Town;Newfoundland and Labrador
Centreville-Wareham-Trinity;49.0000278;-53.9206694;Town;Newfoundland and Labrador
Chance Cove;47.6666472;-53.830925;Town;Newfoundland and Labrador
Change Islands;49.6689444;-54.4037223;Town;Newfoundland and Labrador
Channel-Port aux Basques;47.5955806;-59.1352917;Town;Newfoundland and Labrador
Chapel Arm;47.5049111;-53.6661916;Town;Newfoundland and Labrador
Charlottetown;52.7657222;-56.1453;Town;Newfoundland and Labrador
Churchill Falls;53.531781;-64.008444;Locality;Newfoundland and Labrador
Clarenville;48.1881389;-54.0557138;Town;Newfoundland and Labrador
Clarke's Beach;47.5320167;-53.303675;Town;Newfoundland and Labrador
Coachman's Cove;50.0681694;-56.1237305;Town;Newfoundland and Labrador
Colinet;47.2195306;-53.5480611;Town;Newfoundland and Labrador
Colliers;47.4503222;-53.2482889;Town;Newfoundland and Labrador
Come By Chance;47.8415167;-53.9847806;Town;Newfoundland and Labrador
Comfort Cove-Newstead;49.3581556;-54.8758195;Town;Newfoundland and Labrador
Conception Bay South;47.4907778;-52.9951111;Town;Newfoundland and Labrador
Conception Harbour;47.438575;-53.2239;Town;Newfoundland and Labrador
Conche;50.8955084;-55.8866667;Town;Newfoundland and Labrador
Cook's Harbour;51.6078722;-55.863925;Town;Newfoundland and Labrador
Cormack;49.31595;-57.3833639;Town;Newfoundland and Labrador
Corner Brook;48.9411110;-57.9702780;City;Newfoundland and Labrador
Cottlesville;49.495225;-54.8545583;Town;Newfoundland and Labrador
Cow Head;49.919725;-57.7694834;Town;Newfoundland and Labrador
Cox's Cove;49.1119861;-58.0805139;Town;Newfoundland and Labrador
Crow Head;49.67985;-54.7998834;Town;Newfoundland and Labrador
Cupids;47.5478056;-53.2244889;Town;Newfoundland and Labrador
Daniel's Harbour;50.2326473;-57.5818083;Town;Newfoundland and Labrador
Deer Lake;49.194994;-57.3897;Town;Newfoundland and Labrador
Dildo;47.5713889;-53.5505556;Neighbourhood;Newfoundland and Labrador
Donovans;47.5258333;-52.835;Neighbourhood;Newfoundland and Labrador
Dover;48.8869639;-53.9537778;Town;Newfoundland and Labrador
Duntara;48.585975;-53.3810333;Town;Newfoundland and Labrador
Eastport;48.6646722;-53.7676278;Town;Newfoundland and Labrador
Elliston;48.6291611;-53.0480361;Town;Newfoundland and Labrador
Embree;49.3012472;-55.0437028;Town;Newfoundland and Labrador
Englee;50.7657028;-56.0709528;Town;Newfoundland and Labrador
English Harbour East;47.64608;-54.892783;Town;Newfoundland and Labrador
Fermeuse;46.9727667;-52.977475;Town;Newfoundland and Labrador
Ferryland;47.0302389;-52.9056278;Town;Newfoundland and Labrador
Flatrock;47.7049611;-52.7316555;Town;Newfoundland and Labrador
Fleur de Lys;50.132925;-56.1570194;Town;Newfoundland and Labrador
Flower's Cove;51.29535;-56.7202694;Town;Newfoundland and Labrador
Fogo Island;49.658333;-54.1825;Town;Newfoundland and Labrador
Forteau;51.4915611;-56.9478916;Town;Newfoundland and Labrador
Fortune;47.0406833;-55.8614917;Town;Newfoundland and Labrador
Fox Cove-Mortier;47.1023611;-55.1103778;Town;Newfoundland and Labrador
Fox Harbour;47.3215;-53.8827166;Town;Newfoundland and Labrador
Frenchman's Cove;47.161108;-55.41835;Town;Newfoundland and Labrador
Gallants;48.7054861;-58.2388527;Town;Newfoundland and Labrador
Gambo;48.7970805;-54.2125111;Town;Newfoundland and Labrador
Gander;48.957189;-54.588561;Town;Newfoundland and Labrador
Garnish;47.215406;-55.332653;Town;Newfoundland and Labrador
Gaskiers-Point La Haye;46.8841666;-53.605;Town;Newfoundland and Labrador
Gaultois;47.611875;-55.9137583;Town;Newfoundland and Labrador
Gillams;49.0194944;-58.0683389;Town;Newfoundland and Labrador
Glenburnie-Birchy Head-Shoal Brook;49.4507556;-57.9098889;Town;Newfoundland and Labrador
Glenwood;48.9809139;-54.8820444;Town;Newfoundland and Labrador
Glovertown;48.6911305;-54.0352778;Town;Newfoundland and Labrador
Goobies Station;47.9202777;-53.9488889;Locality;Newfoundland and Labrador
Goose Cove East;51.3075;-55.6272222;Town;Newfoundland and Labrador
Grand Bank;47.088906;-55.755111;Town;Newfoundland and Labrador
Grand Falls-Windsor;48.9640028;-55.6644417;Town;Newfoundland and Labrador
Grand Le Pierre;47.7732861;-54.8056084;Town;Newfoundland and Labrador
Great Barasway;47.1275;-54.0627778;Settlement;Newfoundland and Labrador
Greenspond;49.07315;-53.5768027;Town;Newfoundland and Labrador
Hampden;49.5396389;-56.8816277;Town;Newfoundland and Labrador
Hant's Harbour;47.990422;-53.276714;Town;Newfoundland and Labrador
Happy Adventure;48.6351722;-53.7818861;Town;Newfoundland and Labrador
Happy Valley - Goose Bay;53.341739;-60.448803;Town;Newfoundland and Labrador
Harbour Breton;47.477522;-55.824044;Town;Newfoundland and Labrador
Harbour Grace;47.6796861;-53.2535888;Town;Newfoundland and Labrador
Harbour Main-Chapel's Cove-Lakeview;47.4118667;-53.1740194;Town;Newfoundland and Labrador
Hare Bay;48.8591528;-54.0318361;Town;Newfoundland and Labrador
Hawke's Bay;50.6168083;-57.1846972;Town;Newfoundland and Labrador
Heart's Content;47.8498556;-53.3549306;Town;Newfoundland and Labrador
Heart's Delight-Islington;47.7720722;-53.4437166;Town;Newfoundland and Labrador
Heart's Desire;47.8156361;-53.4267777;Town;Newfoundland and Labrador
Hermitage-Sandyville;47.546214;-55.924428;Town;Newfoundland and Labrador
Hickman's Harbour;48.1086111;-53.7422222;Settlement;Newfoundland and Labrador
Holyrood;47.3458861;-53.1520305;Town;Newfoundland and Labrador
Howley;49.1572028;-57.0995333;Town;Newfoundland and Labrador
Hughes Brook;48.9996805;-57.87935;Town;Newfoundland and Labrador
Humber Arm South;49.01565;-58.1677167;Town;Newfoundland and Labrador
Humber Village;48.9891666;-57.7638888;Village;Newfoundland and Labrador
Indian Bay;49.0641139;-53.96235;Town;Newfoundland and Labrador
Irishtown-Summerside;48.987769;-57.954761;Town;Newfoundland and Labrador
Irvine;47.5302778;-52.8794444;Neighbourhood;Newfoundland and Labrador
Isle aux Morts;47.5974223;-58.965975;Town;Newfoundland and Labrador
Jackson's Arm;49.8652223;-56.8048306;Town;Newfoundland and Labrador
Keels;48.6019445;-53.4074445;Town;Newfoundland and Labrador
King's Cove;48.5589834;-53.3732611;Town;Newfoundland and Labrador
King's Point;49.5807861;-56.208;Town;Newfoundland and Labrador
Kippens;48.5585444;-58.6339833;Town;Newfoundland and Labrador
Labrador City;52.9605694;-66.9365973;Town;Newfoundland and Labrador
Lamaline;46.906572;-55.768875;Town;Newfoundland and Labrador
L'Anse au Loup;51.525847;-56.8349304;Town;Newfoundland and Labrador
L'Anse aux Meadows;51.6013889;-55.5333333;Cove;Newfoundland and Labrador
L'Anse-au-Clair;51.4637361;-57.0670944;Town;Newfoundland and Labrador
Lark Harbour;49.1055056;-58.3923611;Town;Newfoundland and Labrador
LaScie;49.949236;-55.610031;Town;Newfoundland and Labrador
Lawn;46.93885;-55.539314;Town;Newfoundland and Labrador
Leading Tickles;49.481925;-55.4271583;Town;Newfoundland and Labrador
Lewin's Cove;47.0873;-55.2189528;Town;Newfoundland and Labrador
Lewisporte;49.2418083;-55.0460194;Town;Newfoundland and Labrador
Little Bay;49.5992389;-55.9518361;Town;Newfoundland and Labrador
Little Bay East;47.555833;-54.863889;Town;Newfoundland and Labrador
Little Bay Islands;49.6443361;-55.7974221;Town;Newfoundland and Labrador
Little Burnt Bay;49.3397167;-55.0820056;Town;Newfoundland and Labrador
Little Heart's Ease;48.0086111;-53.6994444;Settlement;Newfoundland and Labrador
Logy Bay-Middle Cove-Outer Cove;47.6366889;-52.6870083;Town;Newfoundland and Labrador
Long Harbour-Mount Arlington Heights;47.4430945;-53.782475;Town;Newfoundland and Labrador
Lord's Cove;46.8984417;-55.6587028;Town;Newfoundland and Labrador
Lourdes;48.647823;-59.001605;Town;Newfoundland and Labrador
Lumsden;49.2867583;-53.5925417;Town;Newfoundland and Labrador
Lushes Bight - Beaumont - Beaumont North;49.612445;-55.699182;Town;Newfoundland and Labrador
Main Brook;51.1652528;-55.9875694;Town;Newfoundland and Labrador
Manuels;47.5230556;-52.9536111;Neighbourhood;Newfoundland and Labrador
Mary's Harbour;52.3152777;-55.8336001;Town;Newfoundland and Labrador
Marystown;47.154975;-55.1644334;Town;Newfoundland and Labrador
Massey Drive;48.9363861;-57.8927417;Town;Newfoundland and Labrador
McIver's;49.0608417;-58.1094667;Town;Newfoundland and Labrador
Meadows;48.996536;-58.045158;Town;Newfoundland and Labrador
Middle Arm;49.7030277;-56.1148445;Town;Newfoundland and Labrador
Miles Cove;49.5401528;-55.7958777;Town;Newfoundland and Labrador
Millertown;48.8119444;-56.5430555;Town;Newfoundland and Labrador
Milltown-Head of Bay d'Espoir;47.925892;-55.744281;Town;Newfoundland and Labrador
Ming's Bight;49.9747833;-56.0409167;Town;Newfoundland and Labrador
Morrisville;47.882844;-55.767158;Town;Newfoundland and Labrador
Mount Carmel-Mitchells Brook-St. Catherine's;47.186478;-53.422992;Town;Newfoundland and Labrador
Mount Moriah;48.9583917;-58.0708694;Town;Newfoundland and Labrador
Mount Pearl;47.5195306;-52.8118056;City;Newfoundland and Labrador
Musgrave Harbour;49.4167028;-53.9644222;Town;Newfoundland and Labrador
Musgravetown;48.4140306;-53.8921305;Town;Newfoundland and Labrador
New Perlican;47.9069389;-53.3271;Town;Newfoundland and Labrador
New-Wes-Valley;49.1531389;-53.6266722;Town;Newfoundland and Labrador
Nippers Harbour;49.7933334;-55.8702778;Town;Newfoundland and Labrador
Norman's Cove-Long Cove;47.5459305;-53.6899055;Town;Newfoundland and Labrador
Norris Arm;49.0773444;-55.2379028;Town;Newfoundland and Labrador
Norris Point;49.5194444;-57.8725;Town;Newfoundland and Labrador
North River;47.54345;-53.3130305;Town;Newfoundland and Labrador
North West River;53.53545;-60.1440055;Town;Newfoundland and Labrador
Northern Arm;49.1861222;-55.3862583;Town;Newfoundland and Labrador
Notre Dame Junction;49.1263889;-55.0847222;Locality;Newfoundland and Labrador
Old Perlican;48.0871306;-52.9944472;Town;Newfoundland and Labrador
Pacquet;49.992475;-55.8973083;Town;Newfoundland and Labrador
Paradise;47.5346416;-52.8839778;Town;Newfoundland and Labrador
Parkers Cove;47.3984917;-54.8605778;Town;Newfoundland and Labrador
Parson's Pond;50.0369278;-57.6969917;Town;Newfoundland and Labrador
Pasadena;49.0119334;-57.5684833;Town;Newfoundland and Labrador
Peterview;49.1074583;-55.3388167;Town;Newfoundland and Labrador
Petty Harbour-Maddox Cove;47.4731556;-52.7071833;Town;Newfoundland and Labrador
Pilley's Island;49.5277056;-55.7158528;Town;Newfoundland and Labrador
Pinware;51.6219444;-56.7138889;Town;Newfoundland and Labrador
Placentia;47.2705222;-53.9050916;Town;Newfoundland and Labrador
Point au Gaul;46.8671222;-55.7472111;Town;Newfoundland and Labrador
Point Lance;46.8261611;-54.085025;Town;Newfoundland and Labrador
Point Leamington;49.3198666;-55.4141;Town;Newfoundland and Labrador
Point May;46.9452555;-55.9358056;Town;Newfoundland and Labrador
Point of Bay;49.2770277;-55.2679083;Town;Newfoundland and Labrador
Pool's Cove;47.68255;-55.4343944;Town;Newfoundland and Labrador
Port Anson;49.5366639;-55.8520028;Town;Newfoundland and Labrador
Port au Choix;50.7050139;-57.3270028;Town;Newfoundland and Labrador
Port au Port East;48.5804306;-58.6711361;Town;Newfoundland and Labrador
Port au Port West-Aguathuna-Felix Cove;48.54625;-58.7731222;Town;Newfoundland and Labrador
Port Blandford;48.3414861;-54.1775472;Town;Newfoundland and Labrador
Port Hope Simpson;52.5433334;-56.2977778;Town;Newfoundland and Labrador
Port Kirwan;46.9822056;-52.9176361;Town;Newfoundland and Labrador
Port Rexton;48.3995278;-53.3245444;Town;Newfoundland and Labrador
Port Saunders;50.6620167;-57.2538723;Town;Newfoundland and Labrador
Portugal Cove South;46.7044445;-53.2561111;Town;Newfoundland and Labrador
Portugal Cove-St. Philip's;47.6254028;-52.8380222;Town;Newfoundland and Labrador
Pouch Cove;47.7464916;-52.7774333;Town;Newfoundland and Labrador
Quidi Vidi;47.5805555;-52.6777777;Neighbourhood;Newfoundland and Labrador
Raleigh;51.5588889;-55.7286111;Town;Newfoundland and Labrador
Ramea;47.5206972;-57.3944695;Town;Newfoundland and Labrador
Red Bay;51.7327778;-56.4277778;Town;Newfoundland and Labrador
Red Harbour;47.2927334;-55.002225;Town;Newfoundland and Labrador
Reidville;49.2595195;-57.3674916;Town;Newfoundland and Labrador
Rencontre East;47.6375;-55.215278;Town;Newfoundland and Labrador
Renews-Cappahayden;46.8980555;-52.9477778;Town;Newfoundland and Labrador
River of Ponds;50.5303944;-57.3829889;Town;Newfoundland and Labrador
Riverhead;46.9934694;-53.4833;Town;Newfoundland and Labrador
Robert's Arm;49.4766556;-55.8347694;Town;Newfoundland and Labrador
Rocky Harbour;49.5944445;-57.9194445;Town;Newfoundland and Labrador
Roddickton-Bide Arm;50.848557;-56.110637;Town;Newfoundland and Labrador
Rose Blanche-Harbour Le Cou;47.6210222;-58.6902471;Town;Newfoundland and Labrador
Ross Bay Junction;53.05;-66.1994444;Locality;Newfoundland and Labrador
Rushoon;47.3513028;-54.9201111;Town;Newfoundland and Labrador
Sally's Cove;49.7238667;-57.9310944;Town;Newfoundland and Labrador
Salmon Cove;47.7800306;-53.1732472;Town;Newfoundland and Labrador
Salvage;48.6732139;-53.6629333;Town;Newfoundland and Labrador
Sandringham;48.6589444;-53.8274778;Town;Newfoundland and Labrador
Sandy Cove;48.6475861;-53.7085834;Town;Newfoundland and Labrador
Savage Cove - Sandy Cove;51.330245;-56.684106;Town;Newfoundland and Labrador
Seal Cove;47.4847222;-56.0613889;Town;Newfoundland and Labrador
Seal Cove;49.93135;-56.373472;Town;Newfoundland and Labrador
Shea Heights;47.5436111;-52.7119445;Neighbourhood;Newfoundland and Labrador
Small Point-Adam's Cove-Blackhead-Broad Cove;47.847008;-53.127678;Town;Newfoundland and Labrador
South Brook;49.4029722;-56.089675;Town;Newfoundland and Labrador
South River;47.5320889;-53.2680833;Town;Newfoundland and Labrador
Southern Harbour;47.7223584;-53.9534666;Town;Newfoundland and Labrador
Spaniard's Bay;47.6180528;-53.3369778;Town;Newfoundland and Labrador
Springdale;49.5119027;-56.0642695;Town;Newfoundland and Labrador
St Barbe;51.1997222;-56.7772223;Neighbourhood;Newfoundland and Labrador
St. Alban's;47.877222;-55.849336;Town;Newfoundland and Labrador
St. Anthony;51.374936;-55.616405;Town;Newfoundland and Labrador
St. Bernard's-Jacques Fontaine;47.5195028;-54.9091917;Town;Newfoundland and Labrador
St. Brendan's;48.85805;-53.6660305;Town;Newfoundland and Labrador
St. Bride's;46.9208334;-54.1711111;Town;Newfoundland and Labrador
St. David's;48.2063889;-58.8655556;Neighbourhood;Newfoundland and Labrador
St. George's;48.4152861;-58.4943917;Town;Newfoundland and Labrador
St. Jacques-Coomb's Cove;47.4708222;-55.5418222;Town;Newfoundland and Labrador
St. John's;47.482197;-52.797069;City;Newfoundland and Labrador
St. Joseph's;47.09215;-53.5157889;Town;Newfoundland and Labrador
St. Julien's;51.093889;-55.743333;Locality;Newfoundland and Labrador
St. Lawrence;46.907917;-55.404514;Town;Newfoundland and Labrador
St. Lewis;52.3724528;-55.7012583;Town;Newfoundland and Labrador
St. Lunaire-Griquet;51.5205361;-55.4808889;Town;Newfoundland and Labrador
St. Mary's;46.9135056;-53.5317416;Town;Newfoundland and Labrador
St. Pauls;49.8636667;-57.8059806;Town;Newfoundland and Labrador
St. Shott's;46.632222;-53.586667;Town;Newfoundland and Labrador
St. Vincent's-St. Stephen's-Peter's River;46.7794278;-53.5835861;Town;Newfoundland and Labrador
Steady Brook;48.9583945;-57.8184528;Town;Newfoundland and Labrador
Stephenville;48.5476139;-58.5475556;Town;Newfoundland and Labrador
Stephenville Crossing;48.5288028;-58.4553583;Town;Newfoundland and Labrador
Summerford;49.4971028;-54.78295;Town;Newfoundland and Labrador
Sunnyside;47.8710584;-53.9124861;Town;Newfoundland and Labrador
Terra Nova;48.5025;-54.2144445;Town;Newfoundland and Labrador
Terrenceville;47.659956;-54.70693;Town;Newfoundland and Labrador
Tilt Cove;49.8861111;-55.6269444;Town;Newfoundland and Labrador
Torbay;47.6591278;-52.753175;Town;Newfoundland and Labrador
Traytown;48.6610639;-53.9783417;Town;Newfoundland and Labrador
Trepassey;46.746758;-53.363625;Town;Newfoundland and Labrador
Trinity;48.3754666;-53.3946583;Town;Newfoundland and Labrador
Trinity Bay North;48.501506;-53.081453;Town;Newfoundland and Labrador
Triton;49.518325;-55.619875;Town;Newfoundland and Labrador
Trout River;49.4739333;-58.1252917;Town;Newfoundland and Labrador
Twillingate;49.6443111;-54.7436166;Town;Newfoundland and Labrador
Upper Island Cove;47.6496972;-53.2235194;Town;Newfoundland and Labrador
Victoria;47.77125;-53.2380778;Town;Newfoundland and Labrador
Wabana;47.6394722;-52.9476666;Town;Newfoundland and Labrador
Wabush;52.872;-66.8909194;Town;Newfoundland and Labrador
West St. Modeste;51.5974333;-56.7218444;Town;Newfoundland and Labrador
Westport;49.7877889;-56.617525;Town;Newfoundland and Labrador
Whitbourne;47.4251083;-53.5417195;Town;Newfoundland and Labrador
Whiteway;47.683011;-53.451008;Town;Newfoundland and Labrador
Wiltondale;49.3952778;-57.6105556;Settlement;Newfoundland and Labrador
Windsor Heights;47.6116667;-52.8094445;Settlement;Newfoundland and Labrador
Winterland;47.1509833;-55.3142694;Town;Newfoundland and Labrador
Winterton;47.9528333;-53.3144861;Town;Newfoundland and Labrador
Witless Bay;47.2827139;-52.8220834;Town;Newfoundland and Labrador
Woodstock;49.9659111;-55.8915806;Town;Newfoundland and Labrador
Woody Point;49.49675;-57.9260389;Town;Newfoundland and Labrador
York Harbour;49.0609222;-58.3295722;Town;Newfoundland and Labrador
Aklavik;68.22;-135.0087;Hamlet;Northwest Territories
Behchoko;62.8273;-116.0582;Community Government;Northwest Territories
Deline;65.1897;-123.4244;Charter Community;Northwest Territories
Enterprise;60.5547;-116.1472;Hamlet;Northwest Territories
Fort Good Hope;66.257;-128.6377;Charter Community;Northwest Territories
Fort Liard;60.2392;-123.4752;Hamlet;Northwest Territories
Fort McPherson;67.4354;-134.8824;Hamlet;Northwest Territories
Fort Providence;61.3552;-117.6542;Hamlet;Northwest Territories
Fort Resolution;61.170988;-113.672053;Hamlet;Northwest Territories
Fort Simpson;61.8609;-121.3527;Village;Northwest Territories
Fort Smith;60.0053;-111.8829;Town;Northwest Territories
Gameti;64.1129;-117.3525;Community Government;Northwest Territories
Hay River;60.8097;-115.7898;Town;Northwest Territories
Inuvik;68.3609;-133.7297;Town;Northwest Territories
Norman Wells;65.2811;-126.8316;Town;Northwest Territories
Tsiigehtchic;67.4424;-133.7424;Charter Community;Northwest Territories
Tuktoyaktuk;69.4509;-133.0358;Hamlet;Northwest Territories
Tulita;64.9006;-125.5763;Hamlet;Northwest Territories
Wekweeti;64.1892;-114.1861;Community Government;Northwest Territories
Whati;63.1449;-117.2743;Community Government;Northwest Territories
Wrigley;63.2268;-123.4667;Settlement;Northwest Territories
Yellowknife;62.4536;-114.37;City;Northwest Territories
Amherst;45.833392;-64.212968;Town;Nova Scotia
Annapolis Royal;44.743729;-65.518907;Town;Nova Scotia
Antigonish;45.622765;-61.991581;Town;Nova Scotia
Aylesford;45.028157;-64.836462;Village;Nova Scotia
Baddeck;46.100104;-60.753744;Village;Nova Scotia
Bayers Settlement;44.749722;-63.148889;Dispersed Rural Community;Nova Scotia
Berwick;45.045743;-64.736095;Town;Nova Scotia
Bible Hill;45.3761;-63.258222;Village;Nova Scotia
Bridgetown;44.841582;-65.291209;Community;Nova Scotia
Bridgewater;44.377498;-64.518605;Town;Nova Scotia
Burnside;44.701754;-63.600507;Dispersed Rural Community;Nova Scotia
Caledonia;44.374926;-65.03114;Community;Nova Scotia
Canning;45.157366;-64.420524;Village;Nova Scotia
Cherry Brook;44.709662;-63.479253;Dispersed Rural Community;Nova Scotia
Cherryfield Road;44.660846;-64.803578;Dispersed Rural Community;Nova Scotia
Chester;44.541408;-64.242544;Village;Nova Scotia
Cheticamp;46.629589;-61.012862;Community;Nova Scotia
Clark's Harbour;43.442634;-65.629012;Town;Nova Scotia
Cornwallis Square;45.073268;-64.669889;Village;Nova Scotia
Dartmouth;44.670036;-63.577577;Metropolitan Area;Nova Scotia
Digby;44.620795;-65.758442;Town;Nova Scotia
Dover;45.286451;-61.046551;Village;Nova Scotia
Earltown;45.577463;-63.137586;Community;Nova Scotia
East Quinan;43.926951;-65.80762;Dispersed Rural Community;Nova Scotia
Economy;45.384731;-63.914465;Community;Nova Scotia
Fall River West;44.807953;-63.63949;Dispersed Rural Community;Nova Scotia
Freeport;44.279815;-66.321697;Village;Nova Scotia
Glace Bay;46.194975;-59.955708;Community;Nova Scotia
Glen Moir;44.718665;-63.68074;Dispersed Rural Community;Nova Scotia
Grand Lake;44.892195;-63.591517;Dispersed Rural Community;Nova Scotia
Greenhead Road;44.634735;-63.701256;Dispersed Rural Community;Nova Scotia
Greenwood;44.968923;-64.938631;Village;Nova Scotia
Greenwood Heights;44.652592;-63.737046;Suburban Community;Nova Scotia
Guysborough;45.391322;-61.497953;Community;Nova Scotia
Halifax;44.647401;-63.590651;Metropolitan Area;Nova Scotia
Hammonds Plains Road;44.728805;-63.749641;Dispersed Rural Community;Nova Scotia
Havre Boucher;45.680697;-61.530657;Village;Nova Scotia
Hebbville;44.357391;-64.538469;Village;Nova Scotia
Humber Park;44.702772;-63.497937;Dispersed Rural Community;Nova Scotia
Ingonish;46.691905;-60.367833;Community;Nova Scotia
Inverness;46.230157;-61.306461;Community;Nova Scotia
Keeble;45.695563;-63.183921;Dispersed Rural Community;Nova Scotia
Kentville;45.077707;-64.495306;Town;Nova Scotia
Killarney;44.725995;-63.693903;Dispersed Rural Community;Nova Scotia
Kingston;44.987141;-64.949971;Village;Nova Scotia
LaHave Islands;44.2238889;-64.3572222;Dispersed Rural Community;Nova Scotia
Lawrencetown;44.882197;-65.158668;Village;Nova Scotia
Liscomb;45.024898;-61.999713;Community;Nova Scotia
Lochview Road;44.825056;-63.615234;Dispersed Rural Community;Nova Scotia
Lockeport;43.698733;-65.113322;Town;Nova Scotia
Lower Sackville;44.760695;-63.672213;Dispersed Rural Community;Nova Scotia
Lunenburg;44.377896;-64.309529;Town;Nova Scotia
Mahone Bay;44.446707;-64.377989;Town;Nova Scotia
Maitland;45.318016;-63.49746;Community;Nova Scotia
Malagash;45.772227;-63.376954;Dispersed Rural Community;Nova Scotia
Margaree;46.397142;-61.074805;Community;Nova Scotia
Masons Point;44.668609;-63.914838;Dispersed Rural Community;Nova Scotia
McNabs Island;44.619629;-63.537297;Dispersed Rural Community;Nova Scotia
Meaghers Grant;44.934865;-63.234674;Community;Nova Scotia
Meat Cove;47.023849;-60.560168;Community;Nova Scotia
Meisners Section;44.598333;-64.770833;Dispersed Rural Community;Nova Scotia
Middle East Pubnico;43.644638;-65.765171;Dispersed Rural Community;Nova Scotia
Middle Sackville;44.776444;-63.696046;Dispersed Rural Community;Nova Scotia
Middleton;44.942577;-65.068193;Town;Nova Scotia
Milford Station;45.040799;-63.436356;Locality;Nova Scotia
Mill Brook;45.666095;-63.378154;Dispersed Rural Community;Nova Scotia
Millview;44.709339;-63.670346;Dispersed Rural Community;Nova Scotia
Mount Uniacke;44.892004;-63.829272;Community;Nova Scotia
Mulgrave;45.612156;-61.391725;Town;Nova Scotia
Murrays Siding;45.369987;-63.214516;Dispersed Rural Community;Nova Scotia
Musquodoboit Harbour;44.787246;-63.148102;Community;Nova Scotia
New Glasgow;45.589332;-62.64479;Town;Nova Scotia
New Minas;45.067858;-64.460234;Village;Nova Scotia
New Ross;44.736981;-64.456687;Community;Nova Scotia
North Shore;46.409106;-60.481024;Dispersed Rural Community;Nova Scotia
Oakhill;44.395042;-64.504788;Dispersed Rural Community;Nova Scotia
Owls Head Harbour;44.736237;-62.83279;Dispersed Rural Community;Nova Scotia
Oxford;45.736322;-63.867292;Town;Nova Scotia
Parkdale;44.643277;-63.710417;Suburban Community;Nova Scotia
Parrsboro;45.405548;-64.325945;Town;Nova Scotia
Pereau;45.175872;-64.40127;Dispersed Rural Community;Nova Scotia
Petite Riviere Bridge;44.233457;-64.447088;Dispersed Rural Community;Nova Scotia
Pictou;45.676017;-62.708861;Town;Nova Scotia
Port Hawkesbury;45.616462;-61.356262;Town;Nova Scotia
Port Williams;45.097969;-64.40999;Village;Nova Scotia
Porter;44.740749;-63.287114;Dispersed Rural Community;Nova Scotia
Portobello;44.739283;-63.550517;Dispersed Rural Community;Nova Scotia
Pugwash;45.850092;-63.660303;Village;Nova Scotia
River Hebert;45.69028;-64.378037;Village;Nova Scotia
Sable River West;43.834236;-65.059187;Dispersed Rural Community;Nova Scotia
Scotsburn;45.651347;-62.853673;Community;Nova Scotia
Shannon Park;44.681486;-63.603811;Suburban Community;Nova Scotia
Sheet Harbour;44.923333;-62.537304;Community;Nova Scotia
Shelburne;43.763215;-65.323507;Town;Nova Scotia
Sheldrake Lake;44.673364;-63.792863;Dispersed Rural Community;Nova Scotia
South East Passage;44.598004;-63.461548;Dispersed Rural Community;Nova Scotia
South Quinan;43.919107;-65.799653;Dispersed Rural Community;Nova Scotia
Springhill;45.650675;-64.056904;Community;Nova Scotia
St. Peter's;45.6562;-60.875166;Village;Nova Scotia
Steam Mill Village;45.109649;-64.513904;Dispersed Rural Community;Nova Scotia
Stellarton;45.559373;-62.659856;Town;Nova Scotia
Stewiacke;45.138517;-63.346097;Town;Nova Scotia
Sydney;46.137925;-60.195727;Metropolitan Area;Nova Scotia
Tantallon;44.659835;-63.902757;Community;Nova Scotia
Tatamagouche;45.71214;-63.291092;Village;Nova Scotia
Tidnish;45.993665;-64.00949;Dispersed Rural Community;Nova Scotia
Tiverton;44.392873;-66.212844;Village;Nova Scotia
Trafalgar;45.288299;-62.659654;Community;Nova Scotia
Trenton;45.61052;-62.639371;Town;Nova Scotia
Truro;45.364959;-63.279847;Town;Nova Scotia
Upper Pereau;45.186829;-64.4052;Dispersed Rural Community;Nova Scotia
Upper Rawdon;45.067867;-63.711667;Community;Nova Scotia
Upper Sackville;44.796149;-63.730859;Dispersed Rural Community;Nova Scotia
Waldeck;44.626225;-65.637668;Dispersed Rural Community;Nova Scotia
Wallace Heights;44.687843;-63.610033;Suburban Community;Nova Scotia
Westport;44.263923;-66.350102;Village;Nova Scotia
Westville;45.55632;-62.715396;Town;Nova Scotia
Weymouth;44.411467;-65.995755;Village;Nova Scotia
Whycocomagh Reserve;45.966214;-61.133764;Dispersed Rural Community;Nova Scotia
Windsor;44.99287;-64.135677;Town;Nova Scotia
Wolfville;45.091713;-64.359242;Town;Nova Scotia
Yarmouth;43.838654;-66.115223;Town;Nova Scotia
Yarmouth Bar;43.81848;-66.147683;Dispersed Rural Community;Nova Scotia
Ajax;43.85821;-79.03635;Town;Ontario
Amherstburg;42.1172222;-83.0441666;Town;Ontario
Arnprior;45.4347223;-76.3580556;Town;Ontario
Atikokan;48.7583334;-91.6133333;Suburban Community;Ontario
Aurora;43.99763;-79.46988;Town;Ontario
Aylmer;42.78257;-80.98261;Town;Ontario
Bancroft;45.055;-77.7577778;Town;Ontario
Barrie;44.37124;-79.67697;City;Ontario
Belleville;44.2566666;-77.3697222;City;Ontario
Blind River;46.30227;-82.87795;Town;Ontario
Blue Mountains;44.4780556;-80.4013889;Town;Ontario
Bluewater;43.47673;-81.60291;Town;Ontario
Bracebridge;45.0263889;-79.19;Town;Ontario
Bradford West Gwillimbury;44.13737;-79.61731;Town;Ontario
Brampton;43.6883334;-79.7608333;City;Ontario
Brantford;43.1569444;-80.2575;City;Ontario
Brighton;44.1222222;-77.7641667;Town;Ontario
Brockville;44.59733;-75.6855;City;Ontario
Bruce Mines;46.301;-83.79467;Town;Ontario
Burk's Falls;45.6292;-79.40317;Village;Ontario
Burlington;43.37006;-79.81403;City;Ontario
Caledon;43.86605;-79.85901;Town;Ontario
Cambridge;43.397222;-80.311389;City;Ontario
Carleton Place;45.1380555;-76.1422222;Town;Ontario
Casselman;45.31149;-75.08573;Village;Ontario
Chapleau;47.84385;-83.4004;Compact Rural Community;Ontario
Charlton and Dack;47.7961111;-79.9533333;Municipality;Ontario
Chatham-Kent;42.43396;-82.12876;City;Ontario
Clarence-Rockland;45.48809;-75.21489;City;Ontario
